,City,Lat,Lng,Max Temp,Humidity,Cloudiness,Wind Speed,Country,Date
0,Ludvika,60.15,15.19,32.05,100,6,2.24,SE,1608139734
1,Hilo,19.73,-155.09,68.63,88,90,4.7,US,1608139468
2,Airai,-8.93,125.41,61.97,100,96,2.86,TL,1608139735
3,Saint-Pierre,-21.34,55.48,72.73,88,0,10.29,RE,1608139542
4,Castro,-24.79,-50.01,82.13,49,40,4.36,BR,1608139735
5,Port Alfred,-33.59,26.89,70.0,85,0,10.71,ZA,1608139735
6,Busselton,-33.65,115.33,54.0,85,0,14.54,AU,1608139735
7,Hervey Bay,-25.3,152.85,78.01,83,61,4.0,AU,1608139735
8,Machalí,-34.18,-70.67,80.6,30,0,6.02,CL,1608139591
9,Rikitea,-23.12,-134.97,76.91,73,0,10.98,PF,1608139736
10,Porto-Novo,6.5,2.6,84.2,83,20,12.75,BJ,1608139736
11,Hobart,-42.88,147.33,52.45,93,90,2.26,AU,1608139512
12,Bredasdorp,-34.53,20.04,68.0,64,0,4.7,ZA,1608139736
13,Tigil',57.8,158.67,15.85,93,100,9.37,RU,1608139736
14,Tessalit,20.2,1.01,81.81,17,0,7.38,ML,1608139736
15,Hermanus,-34.42,19.23,70.0,69,27,1.99,ZA,1608139736
16,Mataura,-46.19,168.86,46.99,97,100,1.01,NZ,1608139736
17,Ixtapa,20.7,-105.2,75.6,69,5,4.7,MX,1608139737
18,Gigmoto,13.78,124.39,79.34,83,74,13.98,PH,1608139737
19,Port Keats,-14.25,129.55,79.79,72,100,0.6,AU,1608139737
20,Punta Arenas,-53.15,-70.92,53.29,54,75,26.4,CL,1608139737
21,Bluff,-46.6,168.33,46.99,97,91,1.01,NZ,1608139737
22,Lata,40.16,-8.33,52.99,82,40,5.82,PT,1608139737
23,Jamestown,42.1,-79.24,26.69,53,75,13.87,US,1608139688
24,Beloha,-25.17,45.05,76.33,66,5,7.81,MG,1608139737
25,Butaritari,3.07,172.79,80.76,81,81,18.63,KI,1608139738
26,Hasaki,35.73,140.83,27.09,79,20,2.24,JP,1608139738
27,Severo-Kuril'sk,50.68,156.12,27.16,88,19,2.71,RU,1608139738
28,Parabel',58.7,81.48,9.36,95,100,8.1,RU,1608139738
29,East London,-33.02,27.91,69.8,77,20,9.17,ZA,1608139738
30,Bathsheba,13.22,-59.52,86.0,70,40,14.99,BB,1608139738
31,Nikolskoye,59.7,30.79,30.97,98,90,8.95,RU,1608139739
32,Tevaitoa,-16.78,-151.5,80.58,77,81,21.99,PF,1608139739
33,Taoudenni,22.68,-3.98,79.56,15,0,6.6,ML,1608139739
34,Fortuna,40.6,-124.16,55.9,84,98,7.0,US,1608139739
35,Vanino,49.09,140.25,3.47,70,100,15.41,RU,1608139739
36,Khatanga,71.97,102.5,-31.95,81,0,4.63,RU,1608139739
37,Adra,36.75,-3.02,56.7,72,0,3.36,ES,1608139739
38,Bredy,52.42,60.34,17.51,90,100,11.95,RU,1608139739
39,Ushuaia,-54.8,-68.3,48.2,70,75,11.41,AR,1608139583
40,Hithadhoo,-0.6,73.08,82.24,70,16,7.05,MV,1608139740
41,Ubari,26.59,12.78,60.98,32,89,8.81,LY,1608139740
42,Berdigestyakh,62.1,126.7,-30.32,84,60,1.86,RU,1608139740
43,Peniche,39.36,-9.38,55.72,76,34,8.99,PT,1608139725
44,Korla,41.76,86.15,20.86,84,77,2.55,CN,1608139741
45,Lieksa,63.32,30.02,34.65,97,100,7.58,FI,1608139741
46,Sursk,53.08,45.68,14.2,97,71,1.95,RU,1608139741
47,Carnarvon,-24.87,113.63,71.6,83,0,19.46,AU,1608139741
48,Contamana,-7.33,-75.02,94.44,41,53,5.19,PE,1608139741
49,Soe,-9.86,124.28,67.55,100,97,3.4,ID,1608139741
50,Linxia Chengguanzhen,35.6,103.21,20.46,86,100,2.33,CN,1608139742
51,San Jerónimo,-11.95,-75.28,60.44,49,93,5.21,PE,1608139742
52,Port Elizabeth,-33.92,25.57,69.8,73,0,9.17,ZA,1608139742
53,Tezu,27.92,96.17,61.83,32,55,3.65,IN,1608139742
54,Vestmanna,62.16,-7.17,46.4,75,100,17.22,FO,1608139742
55,Cape Town,-33.93,18.42,67.96,68,0,21.92,ZA,1608139694
56,Chui,-33.7,-53.46,72.0,64,50,10.31,UY,1608139742
57,Tiksi,71.69,128.87,-15.92,89,100,4.32,RU,1608139743
58,Loreto,22.27,-101.97,61.72,32,0,10.71,MX,1608139743
59,Geraldton,-28.77,114.6,68.0,82,90,18.34,AU,1608139743
60,Sovetskaya,44.78,41.17,37.62,84,100,6.69,RU,1608139743
61,Dikson,73.51,80.55,-24.59,81,14,7.7,RU,1608139743
62,Barrow,71.29,-156.79,-7.13,88,0,24.2,US,1608139743
63,Iralaya,15.0,-83.23,81.73,77,12,9.08,HN,1608139744
64,Kapaa,22.08,-159.32,71.62,88,90,12.75,US,1608139744
65,Tanout,14.97,8.89,75.6,18,0,9.82,NE,1608139744
66,San Cristobal,7.77,-72.22,78.8,78,75,6.93,VE,1608139744
67,Waseca,44.08,-93.51,27.43,58,1,4.7,US,1608139451
68,Arraial do Cabo,-22.97,-42.03,86.52,70,0,13.87,BR,1608139744
69,Torbay,47.67,-52.73,30.96,68,75,40.26,CA,1608139745
70,Verkh-Usugli,52.7,115.17,-3.89,89,65,4.23,RU,1608139745
71,Mildura,-34.2,142.15,68.97,68,0,4.7,AU,1608139486
72,New Norfolk,-42.78,147.06,51.01,83,100,1.1,AU,1608139745
73,Saskylakh,71.92,114.08,-32.44,83,91,2.37,RU,1608139745
74,Arlit,18.74,7.39,77.58,16,4,4.81,NE,1608139745
75,Ambon City,-3.7,128.18,84.99,80,82,1.01,ID,1608139745
76,Buriti Bravo,-5.84,-43.83,90.66,51,76,2.91,BR,1608139746
77,Tibati,6.47,12.63,85.68,14,73,8.68,CM,1608139746
78,Prabumulih,-3.45,104.25,73.26,97,95,2.1,ID,1608139746
79,Deputatsky,69.3,139.9,-28.55,87,94,0.67,RU,1608139746
80,Albany,42.6,-73.97,17.71,56,75,6.93,US,1608139746
81,Kala Nera,39.31,23.12,50.36,87,75,4.7,GR,1608139746
82,Kalmunai,7.42,81.82,77.59,77,41,1.79,LK,1608139747
83,Luanda,-8.84,13.23,80.6,69,20,11.41,AO,1608139563
84,Cidreira,-30.18,-50.21,75.72,85,52,8.84,BR,1608139747
85,Lagoa,39.05,-27.98,63.9,78,60,25.61,PT,1608139747
86,Guánica,17.97,-66.91,82.96,62,7,3.0,PR,1608139569
87,Thompson,55.74,-97.86,-4.0,83,90,2.24,CA,1608139747
88,Le Pradet,43.11,6.02,54.84,87,20,6.93,FR,1608139747
89,Muros,42.78,-9.06,52.41,84,50,4.68,ES,1608139747
90,Gimbi,9.17,35.83,61.99,34,29,0.72,ET,1608139748
91,Waterford,42.7,-83.4,27.0,68,90,13.87,US,1608139748
92,Vila do Maio,15.13,-23.22,78.8,57,75,21.92,CV,1608139748
93,Norman Wells,65.28,-126.83,-18.4,75,75,14.99,CA,1608139459
94,Vaini,-21.2,-175.2,73.4,88,75,5.82,TO,1608139748
95,Alyangula,-13.85,136.42,78.8,100,100,4.7,AU,1608139748
96,Tuatapere,-46.13,167.68,46.99,97,97,1.01,NZ,1608139748
97,São João da Barra,-21.64,-41.05,86.0,58,0,18.34,BR,1608139748
98,Mar del Plata,-38.0,-57.56,82.4,24,0,13.87,AR,1608139749
99,Wamba,8.93,8.6,85.82,18,94,1.01,NG,1608139749
100,San Francisco Ixhuatan,16.36,-94.48,86.68,47,0,6.22,MX,1608139749
101,Tottori-shi,35.5,134.23,38.23,77,100,19.04,JP,1608139749
102,Manokwari,-0.87,134.08,80.98,75,100,4.05,ID,1608139749
103,Ostrovnoy,68.05,39.51,25.65,91,100,17.38,RU,1608139750
104,Yellowknife,62.46,-114.35,-40.0,65,20,5.82,CA,1608139612
105,Lashio,22.93,97.75,57.9,96,0,1.03,MM,1608139750
106,Yumen,40.28,97.2,11.68,82,56,6.69,CN,1608139750
107,Olafsvik,64.89,-23.71,35.67,84,96,26.55,IS,1608139750
108,Saint Paul Harbor,57.79,-152.41,23.0,85,1,3.36,US,1608139750
109,Vestmannaeyjar,63.44,-20.27,42.8,75,20,2.24,IS,1608139750
110,Tuktoyaktuk,69.45,-133.04,-20.2,75,75,5.82,CA,1608139751
111,Cherskiy,68.75,161.3,-22.79,87,100,2.44,RU,1608139751
112,Padang,-0.95,100.35,76.05,81,100,3.76,ID,1608139499
113,Dolores,-36.31,-57.68,86.92,13,0,6.98,AR,1608139751
114,Provideniya,64.38,-173.3,13.48,94,73,21.03,RU,1608139751
115,Aykhal,66.0,111.5,-29.2,73,90,4.36,RU,1608139751
116,Bambous Virieux,-20.34,57.76,77.95,94,40,10.29,MU,1608139752
117,Nome,64.5,-165.41,19.4,79,90,10.29,US,1608139752
118,Ponta do Sol,32.67,-17.1,63.19,59,20,10.29,PT,1608139752
119,Rāyagada,19.17,83.42,67.59,71,47,1.61,IN,1608139752
120,Lagos,6.58,3.75,84.2,79,20,4.7,NG,1608139465
121,Nanuque,-17.84,-40.35,85.05,58,64,6.89,BR,1608139506
122,Saint George,37.1,-113.58,39.99,53,0,10.0,US,1608139752
123,Luba,3.46,8.55,86.0,74,40,10.29,GQ,1608139753
124,Luocheng,29.38,104.03,42.19,84,95,4.5,CN,1608139633
125,Paamiut,61.99,-49.67,35.26,78,88,8.21,GL,1608139753
126,Ferraz de Vasconcelos,-23.54,-46.37,84.16,58,40,10.29,BR,1608139753
127,Tura,25.52,90.22,59.61,58,0,2.13,IN,1608139753
128,Garissa,-0.45,39.64,85.28,41,95,3.91,KE,1608139753
129,Puerto Ayora,-0.74,-90.35,74.5,73,40,14.99,EC,1608139649
130,Esperance,-33.87,121.9,55.4,76,40,6.93,AU,1608139754
131,Banda Aceh,5.56,95.32,78.39,81,100,7.54,ID,1608139641
132,Atbasar,51.8,68.33,2.95,89,75,9.46,KZ,1608139754
133,Kahului,20.89,-156.47,70.81,83,20,17.22,US,1608139754
134,Bethel,41.37,-73.41,24.21,32,40,9.17,US,1608139754
135,Pantayivka,48.67,32.88,28.72,98,97,2.37,UA,1608139754
136,Miquelon,47.1,-56.38,30.09,74,75,35.57,PM,1608139755
137,Owando,-0.48,15.9,80.96,69,82,1.57,CG,1608139755
138,Laguna,38.42,-121.42,40.89,100,90,1.59,US,1608139755
139,Dunedin,-45.87,170.5,49.55,86,100,1.99,NZ,1608139755
140,Avera,33.19,-82.53,38.53,94,90,6.93,US,1608139755
141,Sisimiut,66.94,-53.67,18.97,89,30,7.96,GL,1608139755
142,Talas,38.69,35.55,42.8,81,40,4.7,TR,1608139755
143,Katsuura,35.13,140.3,39.09,60,20,14.99,JP,1608139756
144,Qaanaaq,77.48,-69.36,3.49,70,0,4.74,GL,1608139756
145,Katherine,-14.47,132.27,77.0,88,100,4.7,AU,1608139756
146,Yar-Sale,66.83,70.83,6.08,94,100,16.53,RU,1608139756
147,Ribeira Grande,38.52,-28.7,64.4,88,20,19.46,PT,1608139756
148,Bhubaneswar,20.23,85.83,71.6,78,0,2.1,IN,1608139471
149,Atar,20.52,-13.05,84.38,14,0,13.49,MR,1608139756
150,Nikki,9.94,3.21,90.23,14,67,5.57,BJ,1608139756
151,Kaitangata,-46.28,169.85,50.0,96,100,8.01,NZ,1608139757
152,Samandağ,36.08,35.98,55.4,100,75,10.29,TR,1608139757
153,Invermere,50.52,-116.04,24.01,94,80,1.83,CA,1608139757
154,Sitka,57.05,-135.33,39.2,93,90,3.36,US,1608139757
155,Kotovo,50.32,44.8,23.22,95,51,3.13,RU,1608139757
156,Marina,36.68,-121.8,48.61,66,1,6.24,US,1608139589
157,Baixa Grande,-11.96,-40.17,87.26,44,80,4.43,BR,1608139757
158,Huanta,-12.93,-74.25,77.0,25,40,2.24,PE,1608139758
159,Pangnirtung,66.15,-65.71,12.2,72,75,6.93,CA,1608139758
160,Talnakh,69.49,88.4,-9.4,76,40,11.18,RU,1608139758
161,Nizhniy Ufaley,55.92,59.98,21.97,91,100,9.4,RU,1608139758
162,Edendale,-29.65,30.31,68.0,89,99,4.36,ZA,1608139758
163,Pak Phanang,8.35,100.2,78.39,83,85,5.23,TH,1608139758
164,Mareeba,-17.0,145.43,79.77,78,40,3.36,AU,1608139758
165,Saint-Philippe,-21.36,55.77,73.8,88,0,10.29,RE,1608139759
166,Hailey,43.52,-114.32,19.4,79,20,11.41,US,1608139759
167,Lebu,-37.62,-73.65,59.29,58,0,19.86,CL,1608139759
168,Santa Cruz del Norte,23.15,-81.92,82.26,69,20,5.82,CU,1608139759
169,Beyneu,45.32,55.2,32.97,77,20,21.65,KZ,1608139759
170,Dillon,34.42,-79.37,41.34,100,90,6.93,US,1608139759
171,Viedma,-40.81,-63.0,75.99,24,0,4.0,AR,1608139759
172,Neiafu,-18.65,-173.98,73.4,100,75,10.13,TO,1608139760
173,Hofn,64.25,-15.21,42.8,60,90,19.46,IS,1608139760
174,Ballina,-28.87,153.57,70.95,94,75,5.82,AU,1608139760
175,Atuona,-9.8,-139.03,78.62,78,11,21.05,PF,1608139760
176,Hong Kong,22.29,114.16,55.27,75,29,1.01,HK,1608139682
177,Kieta,-6.22,155.63,80.02,81,100,6.49,PG,1608139760
178,Faanui,-16.48,-151.75,79.93,80,68,20.4,PF,1608139760
179,Empalme,27.97,-110.82,65.37,36,5,6.93,MX,1608139761
180,Rocha,-34.48,-54.33,75.79,41,10,10.33,UY,1608139761
181,Pueblo,38.25,-104.61,30.78,73,1,4.7,US,1608139672
182,Gwadar,25.12,62.33,68.47,32,0,3.91,PK,1608139761
183,Zeya,53.75,127.27,-13.34,83,0,0.2,RU,1608139761
184,Mitú,1.2,-70.17,86.27,69,84,0.98,CO,1608139761
185,Pevek,69.7,170.31,9.16,91,55,8.43,RU,1608139761
186,San Jose,37.34,-121.89,48.85,75,75,4.7,US,1608139668
187,Tanete,-3.94,119.78,79.25,78,100,4.83,ID,1608139762
188,Laas,46.62,10.7,36.81,67,90,1.41,IT,1608139762
189,Port Hedland,-20.32,118.57,82.4,78,42,12.75,AU,1608139762
190,Cotonou,6.37,2.42,84.2,83,20,12.75,BJ,1608139762
191,Adrar,20.5,-10.07,81.9,15,69,4.83,MR,1608139762
192,Port Moresby,-9.44,147.18,77.0,94,75,5.82,PG,1608139762
193,Hlobyne,49.39,33.26,28.89,97,99,1.59,UA,1608139763
194,Souillac,-20.52,57.52,77.0,94,40,10.29,MU,1608139763
195,Port Macquarie,-31.43,152.92,72.41,88,90,9.17,AU,1608139716
196,Iqaluit,63.75,-68.51,5.0,71,75,17.22,CA,1608139763
197,College Place,46.05,-118.39,44.29,75,1,8.3,US,1608139763
198,Pacific Grove,36.62,-121.92,49.8,66,1,9.84,US,1608139763
199,Dudinka,69.41,86.18,-9.4,76,40,11.18,RU,1608139642
200,Atasū,48.68,71.64,-2.52,84,1,1.34,KZ,1608139764
201,Antofagasta,-23.65,-70.4,71.13,60,20,12.75,CL,1608139764
202,Aklavik,68.22,-135.01,-20.2,75,40,8.05,CA,1608139764
203,Avarua,-21.21,-159.78,82.4,78,100,17.22,CK,1608139764
204,Lavrentiya,65.58,-171.0,12.47,94,86,16.55,RU,1608139764
205,Hobyo,5.35,48.53,79.5,75,50,21.05,SO,1608139764
206,Kasulu,-4.58,30.1,73.4,94,40,3.67,TZ,1608139764
207,Kichmengskiy Gorodok,59.98,45.79,15.19,97,79,5.55,RU,1608139765
208,Upernavik,72.79,-56.15,18.75,83,23,4.54,GL,1608139765
209,Havre-St-Pierre,50.23,-63.6,12.2,51,1,19.46,CA,1608139765
210,Hay River,60.82,-115.8,-20.2,75,100,6.93,CA,1608139765
211,Guarapari,-20.67,-40.5,85.23,62,0,19.46,BR,1608139514
212,Mwingi,-0.93,38.06,66.43,91,75,3.76,KE,1608139765
213,Jinka,5.65,36.65,69.13,43,0,2.08,ET,1608139765
214,Il'inskoye-Khovanskoye,56.97,39.77,24.8,92,90,6.71,RU,1608139765
215,Pilar do Sul,-23.81,-47.72,83.73,58,39,3.47,BR,1608139766
216,Santa Vitória do Palmar,-33.52,-53.37,70.99,69,67,10.76,BR,1608139766
217,Saravena,6.95,-71.88,86.95,54,33,5.21,CO,1608139766
218,Umluj,25.02,37.27,70.84,54,0,10.63,SA,1608139725
219,Labytnangi,66.66,66.42,5.29,94,100,9.69,RU,1608139766
220,Rabo de Peixe,37.8,-25.58,62.6,93,20,20.8,PT,1608139767
221,Coos Bay,43.37,-124.22,45.82,87,90,6.93,US,1608139767
222,Meulaboh,4.14,96.13,76.6,88,100,0.22,ID,1608139767
223,Poum,-20.23,164.02,78.24,74,53,18.43,NC,1608139767
224,Mahébourg,-20.41,57.7,77.0,94,40,10.29,MU,1608139767
225,Boa Vista,2.82,-60.67,89.6,52,75,6.93,BR,1608139511
226,Cockburn Town,21.46,-71.14,77.0,73,40,9.17,TC,1608139631
227,Whitianga,-36.83,175.7,59.0,80,19,5.01,NZ,1608139691
228,Tiarei,-17.53,-149.33,82.2,65,40,4.7,PF,1608139768
229,Aksarka,66.56,67.8,4.96,94,100,13.51,RU,1608139768
230,Ilulissat,69.22,-51.1,24.8,41,20,21.92,GL,1608139768
231,San Francisco,37.77,-122.42,49.33,81,75,4.7,US,1608139241
232,Tasiilaq,65.61,-37.64,24.8,49,75,23.04,GL,1608139768
233,Yulara,-25.24,130.99,82.4,45,48,12.75,AU,1608139768
234,Wołów,51.34,16.64,42.71,93,90,5.82,PL,1608139769
235,Vostok,46.49,135.88,-14.76,91,87,5.73,RU,1608139769
236,Chokurdakh,70.63,147.92,-8.1,92,100,6.73,RU,1608139769
237,Changli,39.7,119.15,14.9,86,0,7.81,CN,1608139769
238,Camocim,-2.9,-40.84,87.19,58,100,14.81,BR,1608139769
239,Gull Lake,50.1,-108.48,26.6,79,1,16.11,CA,1608139769
240,Mount Gambier,-37.83,140.77,57.2,100,90,8.05,AU,1608139769
241,São Francisco do Sul,-26.24,-48.64,82.4,74,75,4.7,BR,1608139770
242,Ayan,56.45,138.17,-3.15,89,100,17.67,RU,1608139770
243,Örnsköldsvik,63.29,18.72,28.4,100,94,5.82,SE,1608139770
244,Le Port,-20.94,55.29,71.22,83,0,19.46,RE,1608139770
245,Gayny,60.31,54.32,13.89,97,89,5.55,RU,1608139770
246,Lovozero,68.0,35.01,14.86,95,100,4.85,RU,1608139770
247,Codrington,-38.27,141.97,59.58,97,100,6.13,AU,1608139770
248,Káto Mazaráki,38.07,21.65,49.1,93,0,2.57,GR,1608139771
249,Kokoda,-8.88,147.74,75.76,70,100,1.81,PG,1608139771
250,Bujaru,-1.51,-48.04,84.2,79,75,8.05,BR,1608139771
251,Aksu,41.12,80.26,23.25,89,98,3.33,CN,1608139771
252,Bangui,4.36,18.55,89.6,52,20,4.7,CF,1608139673
253,Bānapur,19.78,85.18,72.81,75,0,0.6,IN,1608139771
254,Arilje,43.75,20.1,41.0,75,0,0.54,RS,1608139771
255,Henties Bay,-22.12,14.28,62.01,85,27,4.0,NA,1608139772
256,Praia,14.92,-23.51,78.8,57,75,21.92,CV,1608139772
257,Huilong,31.81,121.66,38.5,69,19,8.25,CN,1608139772
258,Imeni Poliny Osipenko,52.42,136.49,-5.3,87,99,2.17,RU,1608139772
259,Urengoy,65.97,78.37,-5.69,91,100,12.12,RU,1608139772
260,Iquique,-20.22,-70.14,73.4,53,0,13.87,CL,1608139740
261,Eureka,40.8,-124.16,52.02,87,90,8.05,US,1608139772
262,Tautira,-17.73,-149.15,82.2,65,40,4.7,PF,1608139773
263,Yubileynyy,58.78,57.78,17.01,81,99,1.99,RU,1608139773
264,Mahibadhoo,3.78,72.97,82.6,73,12,9.08,MV,1608139773
265,Potosí,-19.58,-65.75,68.0,37,20,4.7,BO,1608139773
266,Fukuechō,32.69,128.84,44.29,65,81,23.29,JP,1608139773
267,Susanville,40.42,-120.65,32.0,83,1,1.81,US,1608139773
268,Néa Alikarnassós,35.33,25.17,57.85,77,75,16.11,GR,1608139773
269,Margate,51.38,1.39,49.42,77,100,7.0,GB,1608139773
270,Ketchikan,55.34,-131.65,39.2,93,90,13.87,US,1608139497
271,Cabo San Lucas,22.89,-109.91,70.05,60,5,4.7,MX,1608139730
272,Obihiro,42.92,143.2,21.97,84,66,12.59,JP,1608139774
273,Kavieng,-2.57,150.8,83.1,78,98,11.83,PG,1608139774
274,Buraidah,26.33,43.98,68.0,64,75,9.17,SA,1608139774
275,Mayumba,-3.43,10.66,78.33,87,74,9.4,GA,1608139774
276,Katangli,51.71,143.23,8.47,87,100,24.87,RU,1608139774
277,Santa Maria,-29.68,-53.81,85.93,50,95,5.06,BR,1608139775
278,Tyukhtet,56.54,89.3,4.05,93,100,5.97,RU,1608139775
279,Bandrele,-12.91,45.19,82.4,74,0,8.05,YT,1608139775
280,Hamilton,39.18,-84.53,33.26,93,90,3.78,US,1608139528
281,Norrtälje,59.76,18.7,40.35,87,32,10.0,SE,1608139775
282,Kashgar,39.45,75.98,24.8,85,86,3.53,CN,1608139775
283,Erenhot,43.65,111.98,4.69,89,0,12.24,CN,1608139775
284,Nyurba,63.28,118.33,-21.19,87,96,3.42,RU,1608139776
285,Krasnoborsk,61.56,45.93,17.42,96,71,5.82,RU,1608139776
286,Mitsamiouli,-11.38,43.28,82.8,68,98,5.82,KM,1608139776
287,Novoagansk,61.94,76.66,2.64,94,99,7.47,RU,1608139776
288,Mountain Home,43.13,-115.69,28.4,100,90,1.66,US,1608139765
289,Shimanovsk,52.0,127.7,-14.1,86,0,5.95,RU,1608139776
290,Sangar,63.92,127.47,-43.4,78,96,2.73,RU,1608139777
291,Bengkulu,-3.8,102.27,75.99,83,100,6.22,ID,1608139503
292,Bilibino,68.05,166.44,-6.81,87,41,6.06,RU,1608139777
293,Kholtoson,50.3,103.31,-2.34,88,100,1.77,RU,1608139777
294,Dekar,-21.53,21.93,83.7,40,41,17.54,BW,1608139777
295,Kysyl-Syr,63.9,122.76,-34.8,82,95,4.56,RU,1608139777
296,Nouadhibou,20.93,-17.03,73.4,60,0,17.22,MR,1608139777
297,Aktash,50.3,87.73,-5.87,88,82,3.22,RU,1608139778
298,Lorengau,-2.02,147.27,82.89,80,98,10.13,PG,1608139778
299,Saint-François,46.42,3.91,50.47,76,0,4.7,FR,1608139778
300,Westport,41.14,-73.36,26.44,30,1,10.29,US,1608139504
301,Manado,1.49,124.85,75.2,94,40,3.36,ID,1608139778
302,Bubaque,11.28,-15.83,80.87,60,2,13.6,GW,1608139778
303,Mount Isa,-20.73,139.5,84.2,45,83,9.17,AU,1608139778
304,Mossamedes,-15.2,12.15,69.35,77,18,8.23,AO,1608139779
305,Dickinson,29.46,-95.05,46.87,61,75,16.11,US,1608139779
306,Cayenne,4.93,-52.33,84.2,74,33,9.17,GF,1608139779
307,Kirakira,-10.45,161.92,80.17,82,39,5.86,SB,1608139779
308,Biltine,14.53,20.92,80.31,15,3,9.78,TD,1608139779
309,Berlevåg,70.86,29.09,24.75,62,75,17.22,NO,1608139779
310,Ukiah,39.15,-123.21,49.78,93,90,3.36,US,1608139759
311,Makassar,-5.14,119.42,75.2,100,40,4.7,ID,1608139780
312,Teya,60.38,92.63,-9.47,86,86,4.76,RU,1608139780
313,Hillsborough,37.57,-122.38,49.64,81,75,4.7,US,1608139780
314,Kruisfontein,-34.0,24.73,72.0,54,0,3.0,ZA,1608139780
315,Ust-Tsilma,65.44,52.15,13.93,95,93,7.43,RU,1608139780
316,Longyearbyen,78.22,15.64,1.4,59,0,8.05,SJ,1608139780
317,Shubarkuduk,49.14,56.49,17.76,92,100,13.94,KZ,1608139780
318,Redmond,47.67,-122.12,46.0,94,100,3.56,US,1608139780
319,Aba,5.11,7.37,86.0,79,40,3.36,NG,1608139781
320,Tūkrah,32.53,20.58,61.68,74,95,8.55,LY,1608139781
321,Tupelo,34.26,-88.7,38.8,80,90,3.36,US,1608139781
322,Butiá,-30.12,-51.96,83.8,59,79,8.1,BR,1608139781
323,Kavaratti,10.57,72.64,82.65,65,4,3.31,IN,1608139781
324,San Vicente,-26.62,-54.13,67.66,98,100,8.19,AR,1608139781
325,Zhigansk,66.77,123.37,-38.51,80,21,5.17,RU,1608139782
326,Atambua,-9.11,124.89,75.76,92,100,3.56,ID,1608139782
327,Christchurch,-43.53,172.63,56.39,87,37,4.7,NZ,1608139782
328,Leningradskiy,69.38,178.42,16.0,95,100,24.43,RU,1608139782
329,Sakīt,27.45,78.82,54.18,39,0,8.37,IN,1608139782
330,Pitimbu,-7.47,-34.81,86.0,66,40,14.99,BR,1608139782
331,Alta Floresta,-9.88,-56.09,91.83,46,63,4.56,BR,1608139782
332,Soure,-0.72,-48.52,85.35,68,79,9.78,BR,1608139783
333,Karatau,43.17,70.47,15.49,89,0,1.83,KZ,1608139783
334,Pisco,-13.7,-76.22,70.32,77,0,10.29,PE,1608139783
335,Anadyr,64.75,177.48,21.2,73,100,20.13,RU,1608139783
336,Aipe,3.22,-75.24,84.25,59,53,2.46,CO,1608139783
337,Sorong,-0.88,131.25,82.31,77,100,7.07,ID,1608139783
338,Sainte-Rose,16.33,-61.7,86.0,70,40,10.29,GP,1608139704
339,Kamenka,51.32,42.77,21.99,92,13,3.74,RU,1608139784
340,Colares,38.8,-9.45,56.25,82,40,9.17,PT,1608139784
341,Dawlatabad,36.41,64.91,29.43,89,32,1.16,AF,1608139784
342,Severo-Yeniseyskiy,60.37,93.04,-9.94,89,97,4.72,RU,1608139784
343,Te Anau,-45.42,167.72,51.57,93,99,3.13,NZ,1608139784
344,Kabompo,-13.59,24.2,68.41,92,100,4.99,ZM,1608139784
345,Rosa Zarate,0.33,-79.47,82.02,71,81,2.95,EC,1608139784
346,Nabire,-3.37,135.48,77.27,85,100,3.49,ID,1608139785
347,Wewak,-3.55,143.63,80.19,82,100,6.73,PG,1608139785
348,Rudnogorsk,57.26,103.75,-18.51,89,67,4.63,RU,1608139785
349,Portland,45.52,-122.68,45.59,87,90,11.41,US,1608138921
350,George Town,5.41,100.34,77.65,94,20,3.36,MY,1608139739
351,Muli,2.92,73.57,82.42,70,13,8.9,MV,1608139785
352,Moussoro,13.64,16.49,81.84,15,39,10.71,TD,1608139785
353,Alofi,-19.06,-169.92,75.2,88,81,4.7,NU,1608139786
354,Camagüey,21.38,-77.92,82.4,65,40,10.29,CU,1608139786
355,Bonavista,48.65,-53.11,26.6,79,100,18.34,CA,1608139786
356,Zhongshan,21.32,110.58,55.81,58,100,7.94,CN,1608139786
357,Tolaga Bay,-38.37,178.3,59.29,72,0,5.97,NZ,1608139786
358,Vrangel',42.73,133.08,11.35,77,0,15.19,RU,1608139786
359,Mitchell,43.71,-98.03,26.6,79,20,11.41,US,1608139680
360,Mentougou,39.94,116.09,24.15,47,0,2.48,CN,1608139787
361,Sabang,5.89,95.32,80.71,78,100,9.22,ID,1608139787
362,Karpogory,64.0,44.45,22.57,98,100,5.66,RU,1608139787
363,San Policarpo,12.18,125.51,81.46,76,28,15.26,PH,1608139787
364,Omboué,-1.57,9.26,78.62,86,93,8.46,GA,1608139787
365,Kachug,53.96,105.88,-7.89,86,74,3.49,RU,1608139787
366,Durban,-29.86,31.03,71.56,78,75,3.36,ZA,1608139601
367,Nerang,-27.98,153.33,73.47,96,100,1.99,AU,1608139788
368,Boddam,57.47,-1.78,47.71,93,75,25.28,GB,1608139788
369,Capitão Poço,-1.75,-47.06,86.83,64,79,7.2,BR,1608139788
370,Mana,5.66,-53.78,83.53,75,41,8.95,GF,1608139788
371,La Rioja,42.25,-2.5,47.57,76,20,10.29,ES,1608139788
372,Takoradze,4.88,-1.76,81.64,79,99,8.55,GH,1608139788
373,Narsaq,60.92,-46.05,37.4,37,75,46.08,GL,1608139788
374,Anaconda,46.13,-112.94,32.52,55,20,9.17,US,1608139788
375,Lerwick,60.15,-1.15,48.2,93,75,29.97,GB,1608139789
376,Murmashi,68.82,32.81,24.8,92,75,4.47,RU,1608139789
377,Toamasina,-18.17,49.38,77.0,88,20,2.24,MG,1608139789
378,Launceston,-41.45,147.17,50.68,100,90,17.22,AU,1608139789
379,Nioro,13.35,-15.75,96.57,10,11,7.07,GM,1608139789
380,Marawi,8.0,124.29,75.0,93,71,5.99,PH,1608139789
381,Sarankhola,22.31,89.79,68.0,50,0,4.79,BD,1608139790
382,Vardø,70.37,31.11,22.1,100,40,17.22,NO,1608139790
383,Guerrero Negro,27.98,-114.06,60.64,33,0,0.94,MX,1608139505
384,Sukumo,32.93,132.73,35.92,82,55,12.73,JP,1608139593
385,Kedrovyy,56.17,91.82,-14.8,75,0,3.83,RU,1608139790
386,Shenjiamen,29.96,122.3,45.57,64,86,13.06,CN,1608139790
387,San Patricio,28.02,-97.52,53.55,34,1,13.87,US,1608139791
388,Lingao,19.91,109.69,63.34,82,96,11.25,CN,1608139791
389,Itaguaí,-22.85,-43.78,86.0,66,0,11.41,BR,1608139791
390,Dunn,44.95,-91.88,24.75,73,90,5.82,US,1608139791
391,Richards Bay,-28.78,32.04,71.24,80,0,5.84,ZA,1608139697
392,Lafia,8.48,8.52,88.39,16,41,0.45,NG,1608139791
393,Ribas do Rio Pardo,-20.44,-53.76,91.85,41,96,1.19,BR,1608139791
394,Karratha,-20.74,116.85,81.18,75,33,13.62,AU,1608139645
395,Acapulco de Juárez,16.86,-99.89,86.0,55,75,3.56,MX,1608139792
396,Isangel,-19.55,169.27,76.01,82,8,14.85,VU,1608139792
397,Augusto Corrêa,-1.02,-46.63,87.98,58,100,8.5,BR,1608139792
398,Giddalūr,15.35,78.92,70.07,87,43,4.56,IN,1608139792
399,Fairbanks,64.84,-147.72,3.54,38,90,12.75,US,1608139511
400,Alice Springs,-23.7,133.88,83.3,28,53,5.82,AU,1608139792
401,Simga,21.63,81.7,75.2,69,20,5.82,IN,1608139792
402,Tilichiki,60.47,166.1,-1.62,94,99,13.2,RU,1608139793
403,Gawler,-34.6,138.73,62.64,78,39,5.17,AU,1608139793
404,North Bend,43.41,-124.22,47.64,87,90,6.93,US,1608139793
405,Goba,7.02,39.98,50.45,48,11,3.33,ET,1608139793
406,Constitución,-35.33,-72.42,67.39,42,0,11.5,CL,1608139793
407,Khorixas,-20.37,14.97,74.17,42,0,19.19,NA,1608139793
408,Puerto Escondido,15.85,-97.07,82.4,78,5,4.7,MX,1608139794
409,Beringovskiy,63.05,179.32,12.97,95,98,10.71,RU,1608139794
410,Dingle,11.0,122.67,75.15,91,59,8.5,PH,1608139794
411,Sistranda,63.73,8.83,41.0,93,75,4.7,NO,1608139603
412,Broome,42.25,-75.83,24.03,48,90,11.41,US,1608139794
413,Tambovka,50.1,128.05,-7.6,63,0,4.47,RU,1608139794
414,Ladário,-19.0,-57.6,94.71,46,40,4.7,BR,1608139794
415,Gorzów Wielkopolski,52.74,15.23,45.0,81,31,3.0,PL,1608139794
416,Faranah,10.04,-10.74,89.94,34,90,4.36,GN,1608139795
417,Erdenet,49.03,104.08,0.93,88,6,4.12,MN,1608139795
418,Trelew,-43.25,-65.31,76.35,19,0,1.52,AR,1608139795
419,Panguna,-6.32,155.48,69.93,100,99,0.98,PG,1608139795
420,Honiara,-9.43,159.95,77.0,94,40,2.24,SB,1608139551
421,Chunskiy,56.08,99.63,-15.52,87,19,1.88,RU,1608139795
422,Bahía Solano,6.23,-77.4,80.76,77,79,4.83,CO,1608139795
423,Nanortalik,60.14,-45.24,29.57,90,100,12.48,GL,1608139796
424,Boende,-0.22,20.87,82.87,59,82,1.5,CD,1608139796
425,Ankara,39.92,32.85,50.16,62,75,4.7,TR,1608139625
426,Buala,-8.14,159.59,80.2,82,63,5.26,SB,1608139796
427,Salaga,8.55,-0.52,96.08,27,84,3.69,GH,1608139796
428,Grindavik,63.84,-22.43,37.4,86,75,10.29,IS,1608139796
429,Jalu,29.03,21.55,58.17,67,80,6.64,LY,1608139796
430,Cabedelo,-6.98,-34.83,86.0,66,40,14.99,BR,1608139796
431,Corinth,37.94,22.96,54.0,71,41,1.99,GR,1608139797
432,Husavik,66.04,-17.34,35.6,80,75,13.87,IS,1608139797
433,Belogorsk,50.92,128.46,-15.5,85,0,6.08,RU,1608139693
434,Whyalla,-33.03,137.58,64.4,77,90,12.75,AU,1608139797
435,Martapura,-3.42,114.85,77.0,94,90,6.93,ID,1608139797
436,Buriti dos Lopes,-3.17,-41.87,89.6,62,20,21.92,BR,1608139797
437,Matamoros,25.53,-103.25,56.08,24,5,2.19,MX,1608139797
438,Touros,-5.2,-35.46,87.8,58,40,14.99,BR,1608139798
439,Qasigiannguit,68.82,-51.19,24.8,41,20,21.92,GL,1608139798
440,Oktyabr'skiy,54.48,53.47,22.53,96,100,13.62,RU,1608139798
441,Galle,6.04,80.22,78.26,77,62,5.5,LK,1608139798
442,Hasilpur,29.71,72.56,51.06,44,0,7.07,PK,1608139798
443,Lüderitz,-26.65,15.16,73.4,56,0,25.28,NA,1608139798
444,Boulder City,35.98,-114.83,45.52,28,1,3.2,US,1608139798
445,Najrān,17.49,44.13,62.6,29,0,4.7,SA,1608139799
446,Gamba,-2.65,10.0,77.2,84,73,5.79,GA,1608139799
447,Sulzbach-Rosenberg,49.5,11.75,40.55,86,90,5.82,DE,1608139799
448,Kloulklubed,7.04,134.26,78.8,94,75,10.29,PW,1608139799
449,Dubrovnik,42.65,18.09,53.6,81,75,5.82,HR,1608139799
450,Hohhot,40.81,111.65,-4.0,64,0,4.47,CN,1608139800
451,Kumul,42.8,93.45,14.83,74,0,1.36,CN,1608139800
452,Batangafo,7.3,18.28,85.71,16,32,3.53,CF,1608139800
453,Dryden,49.78,-92.75,19.4,85,90,12.75,CA,1608139800
454,Naryan-Mar,67.67,53.09,21.4,97,100,12.17,RU,1608139800
455,Camacha,33.08,-16.33,60.8,82,20,14.99,PT,1608139800
456,Malé,4.17,73.51,82.4,74,40,5.82,MV,1608139801
457,Carrara,44.06,10.06,51.75,92,96,5.01,IT,1608139801
458,Farrukhnagar,17.08,78.2,68.5,94,6,5.82,IN,1608139801
459,Bandarbeyla,9.49,50.81,75.43,73,0,24.0,SO,1608139802
460,Saint-Joseph,-21.37,55.62,77.0,88,0,10.29,RE,1608139802
461,San Quintín,30.48,-115.95,63.84,27,0,2.17,MX,1608139802
462,Ambilobe,-13.2,49.05,77.86,82,54,1.83,MG,1608139802
463,Diffa,13.32,12.61,75.18,19,56,8.52,NE,1608139802
464,Rubiataba,-15.16,-49.8,88.21,47,100,2.71,BR,1608139803
465,Chacabuco,-34.64,-60.47,92.32,11,0,5.55,AR,1608139803
466,Half Moon Bay,37.46,-122.43,49.28,87,40,4.65,US,1608139803
467,Los Corrales de Buelna,43.26,-4.07,51.94,93,90,5.82,ES,1608139804
468,Saldanha,-33.01,17.94,71.6,56,30,24.16,ZA,1608139804
469,Jinchang,38.5,102.17,15.22,85,100,2.28,CN,1608139807
470,Mormugao,15.4,73.8,76.87,68,7,8.48,IN,1608139809
471,Assiut,27.18,31.18,64.4,39,0,6.93,EG,1608139809
472,Nantucket,41.28,-70.1,32.5,55,1,13.87,US,1608139622
473,Nemuro,43.32,145.57,25.77,86,86,26.08,JP,1608139810
474,Esim,4.87,-2.24,79.47,83,98,7.27,GH,1608139812
475,Fayaoué,-20.65,166.53,77.4,74,7,21.12,NC,1608139814
476,San Antonio,29.42,-98.49,48.27,39,1,10.29,US,1608139698
477,Sechura,-5.56,-80.82,79.38,55,15,14.27,PE,1608139815
478,Griffith,41.53,-87.42,30.45,74,90,4.7,US,1608139815
479,Necochea,-38.55,-58.74,78.01,37,4,18.92,AR,1608139815
480,Lamar,33.67,-95.58,36.19,74,90,8.05,US,1608139815
481,Inhambane,-23.86,35.38,80.29,78,40,2.24,MZ,1608139815
482,Kwang Binh,17.48,106.6,63.03,90,100,13.04,VN,1608139816
483,Caravelas,-17.71,-39.25,82.99,60,66,9.53,BR,1608139816
484,Aquiraz,-3.9,-38.39,86.0,66,40,14.99,BR,1608139816
485,Puerto Colombia,10.99,-74.95,89.6,62,40,6.93,CO,1608139817
486,Kraśnik,50.92,22.23,38.03,100,90,8.05,PL,1608139817
487,Chabahar,25.29,60.64,60.8,27,0,4.7,IR,1608139817
488,Gold Coast,-28.0,153.43,72.55,94,75,17.22,AU,1608139817
489,Hargeisa,9.56,44.06,60.39,84,12,12.64,SO,1608139817
490,São Félix do Xingu,-6.64,-51.99,93.27,41,65,3.94,BR,1608139817
491,Pangkalanbuun,-2.68,111.62,74.66,96,100,2.93,ID,1608139818
492,Kommunisticheskiy,61.68,64.48,16.25,97,99,7.34,RU,1608139818
493,Mandalgovi,45.76,106.27,5.49,86,4,12.93,MN,1608139818
494,Mayo,38.89,-76.51,33.26,86,90,10.29,US,1608139819
495,Huangcun,30.01,118.4,32.34,85,93,4.07,CN,1608139819
496,Acaraú,-2.89,-40.12,86.05,62,99,16.35,BR,1608139819
497,Topchikha,52.82,83.12,12.2,85,75,8.95,RU,1608139819
498,Oranjestad,12.52,-70.03,84.2,66,75,18.34,AW,1608139612
499,Novopetrovskoye,55.99,36.47,28.4,92,90,11.18,RU,1608139820
500,Sur,22.57,59.53,68.9,48,1,6.42,OM,1608139820
501,Celestún,20.87,-90.4,79.07,68,17,5.95,MX,1608139820
502,Rincon,32.3,-81.24,45.72,93,90,4.7,US,1608139821
503,Petropavl,54.88,69.16,12.94,95,100,12.21,KZ,1608139821
504,Agadez,19.75,10.25,62.92,28,19,5.26,NE,1608139821
505,Ahipara,-35.17,173.17,56.59,86,3,6.35,NZ,1608139821
506,Swellendam,-34.02,20.44,68.0,64,61,4.7,ZA,1608139821
507,Woodstock,43.13,-80.75,24.57,58,96,4.7,CA,1608139822
508,Rawson,-43.3,-65.1,69.44,31,0,9.33,AR,1608139822
509,Plettenberg Bay,-34.05,23.37,64.24,73,0,3.11,ZA,1608139822
510,Sarandi,-23.44,-51.87,85.24,57,73,6.2,BR,1608139823
511,Iquitos,-3.75,-73.25,87.8,66,75,2.24,PE,1608139823
512,Kapit,2.02,112.93,74.14,94,99,1.28,MY,1608139823
513,Kathu,7.92,98.33,83.3,88,20,2.24,TH,1608139823
514,Labuhan,-6.88,112.21,77.09,87,100,5.46,ID,1608139824
515,Lingsugūr,16.17,76.52,70.75,71,0,10.0,IN,1608139824
516,Las Cruces,32.31,-106.78,40.28,35,1,4.14,US,1608139824
517,Flinders,-34.58,150.86,72.14,93,98,3.0,AU,1608139824
518,Vila Velha,-20.33,-40.29,85.23,62,0,19.46,BR,1608139577
519,Cedar City,37.68,-113.06,21.2,67,1,5.82,US,1608139784
520,Ban Nahin,18.24,104.21,61.61,74,25,4.7,LA,1608139825
521,Peno,56.93,32.74,32.13,98,100,11.32,RU,1608139825
522,Hatillo,18.49,-66.83,82.26,78,40,10.29,PR,1608139825
523,College,64.86,-147.8,2.93,46,90,12.75,US,1608139825
524,Ilūkste,55.98,26.3,37.0,94,100,8.81,LV,1608139826
525,Garhi Khairo,28.06,67.98,56.88,35,0,4.41,PK,1608139826
526,Gulbene,57.18,26.75,37.53,94,100,8.1,LV,1608139826
527,Inírida,3.87,-67.92,89.65,58,70,1.63,CO,1608139826
528,Gorontalo,0.54,123.06,75.76,87,100,3.98,ID,1608139826
529,Goderich,43.75,-81.72,24.8,73,100,17.22,CA,1608139531
530,Chifeng,42.27,118.96,2.93,84,0,7.99,CN,1608139826
531,Morehead,37.27,-87.18,37.71,86,90,4.7,US,1608139827
532,Cap-aux-Meules,47.38,-61.86,23.0,79,100,29.97,CA,1608139827
533,Kargasok,59.06,80.86,8.64,95,99,8.3,RU,1608139827
534,Shelburne,44.08,-80.2,15.82,89,100,15.5,CA,1608139827
535,Petukhovo,55.07,67.9,15.3,95,100,12.82,RU,1608139827
536,Lissone,45.62,9.25,45.7,93,75,3.36,IT,1608139827
537,Ulaanbaatar,47.91,106.88,-18.4,75,7,2.24,MN,1608139828
538,Penzance,50.12,-5.54,47.82,81,20,12.75,GB,1608139828
539,Chicama,-7.84,-79.15,68.0,82,75,10.29,PE,1608139828
540,Salalah,17.02,54.09,77.0,65,20,10.29,OM,1608139828
541,Ancud,-41.87,-73.82,57.92,54,0,10.29,CL,1608139828
542,Yangi Marg`ilon,40.43,71.72,28.4,74,0,4.7,UZ,1608139829
543,Gobabis,-22.45,18.97,89.6,21,76,6.93,NA,1608139829
544,Kidal,18.44,1.41,75.4,19,0,3.33,ML,1608139829
545,Birao,10.28,22.79,78.31,18,16,6.29,CF,1608139829
546,Tamandaré,-8.76,-35.1,82.2,68,100,10.98,BR,1608139829
547,Muhos,64.81,25.99,32.0,96,90,6.93,FI,1608139830
548,Havelock,34.88,-76.9,61.59,100,90,3.36,US,1608139547
549,Belmonte,-15.86,-38.88,82.4,61,20,12.75,BR,1608139830
550,Kristinestad,62.27,21.38,36.59,87,68,8.16,FI,1608139830
551,Qiqihar,47.34,123.97,3.31,82,0,5.5,CN,1608139830
552,Diego de Almagro,-26.37,-70.05,83.62,17,0,15.79,CL,1608139830
553,Los Llanos de Aridane,28.66,-17.92,65.66,60,20,6.93,ES,1608139831
554,Gizo Government Station,-8.1,156.84,83.17,74,88,5.91,SB,1608139831
555,Banjar,-8.19,114.97,78.8,88,40,9.17,ID,1608139831
556,Berbera,10.44,45.01,77.04,73,46,12.48,SO,1608139730
557,Tekirdağ,40.98,27.51,44.6,93,75,11.41,TR,1608139831
558,Praia,14.92,-23.51,78.8,57,75,21.92,CV,1608139832
