,City,Lat,Lng,Max Temp,Humidity,Cloudiness,Wind Speed,Country,Date
0,Tupik,54.43,119.93,240.21,77,0,1.65,RU,1607897161
1,Dunedin,-45.87,170.5,287.04,67,91,10.28,NZ,1607897186
2,Bluff,-46.6,168.33,286.48,74,100,4.02,NZ,1607896911
3,Hamilton,39.18,-84.53,278.78,75,90,1.5,US,1607897186
4,Morehead,37.27,-87.18,280.27,73,90,1.5,US,1607897186
5,Saint Paul Harbor,57.79,-152.41,279.15,93,90,7.7,US,1607897187
6,Punta Arenas,-53.15,-70.92,283.63,57,40,10.8,CL,1607897187
7,Hithadhoo,-0.6,73.08,301.11,77,59,7.2,MV,1607897187
8,Upernavik,72.79,-56.15,269.1,98,100,0.86,GL,1607897187
9,Hong Kong,22.29,114.16,292.67,81,84,6.21,HK,1607897187
10,Puerto Ayora,-0.74,-90.35,298.18,65,0,6.7,EC,1607897187
11,Tuktoyaktuk,69.45,-133.04,252.15,76,75,5.7,CA,1607897187
12,Maniitsoq,65.42,-52.9,264.98,90,100,2.71,GL,1607897187
13,Kasongo-Lunda,-6.47,16.82,294.68,91,96,0.53,CD,1607897188
14,Port Alfred,-33.59,26.89,292.04,96,25,8.05,ZA,1607897188
15,San Felipe,10.34,-68.74,296.61,89,58,1.87,VE,1607897188
16,Butaritari,3.07,172.79,300.97,76,5,8.02,KI,1607897188
17,Grajaú,-5.82,-46.14,300.42,62,20,1.06,BR,1607897188
18,Nikel,69.41,30.22,272.15,92,75,6.7,RU,1607897188
19,Port Macquarie,-31.43,152.92,293.4,99,100,7.01,AU,1607897189
20,Makkah al Mukarramah,21.43,39.83,296.32,60,0,0.99,SA,1607896981
21,Hermanus,-34.42,19.23,287.59,91,23,3.43,ZA,1607897189
22,Rikitea,-23.12,-134.97,297.74,70,38,2.79,PF,1607897189
23,Albany,42.6,-73.97,278.8,65,100,4.16,US,1607896844
24,Acapulco de Juárez,16.86,-99.89,303.15,66,20,2.6,MX,1607897189
25,Qaanaaq,77.48,-69.36,269.64,93,100,2.46,GL,1607897189
26,Mataura,-46.19,168.86,286.48,74,91,4.02,NZ,1607896906
27,Busselton,-33.65,115.33,282.38,98,21,3.08,AU,1607897190
28,Yellowknife,62.46,-114.35,241.32,74,5,1.5,CA,1607897190
29,Bukachacha,52.98,116.92,246.53,76,0,1.56,RU,1607897190
30,Katsuura,35.13,140.3,286.23,50,75,6.7,JP,1607897190
31,Hilo,19.73,-155.09,296.82,69,90,4.1,US,1607897146
32,Honningsvåg,70.98,25.97,273.15,87,75,2.1,NO,1607897190
33,Kutum,14.2,24.67,291.33,25,100,2.0,SD,1607897162
34,Roebourne,-20.78,117.13,297.53,75,4,3.93,AU,1607897190
35,Aklavik,68.22,-135.01,236.68,66,2,2.1,CA,1607897191
36,Atuona,-9.8,-139.03,299.52,70,1,6.46,PF,1607897191
37,Hobart,-42.88,147.33,294.02,49,20,6.7,AU,1607897013
38,San Jorge,-31.9,-61.86,300.93,41,31,0.45,AR,1607897191
39,Kaitangata,-46.28,169.85,288.15,61,97,4.02,NZ,1607897146
40,Airai,-8.93,125.41,290.53,100,100,0.33,TL,1607896940
41,Walvis Bay,-22.96,14.51,289.99,77,2,2.1,NA,1607897191
42,Kapaa,22.08,-159.32,300.39,65,1,2.1,US,1607897192
43,Linxia Chengguanzhen,35.6,103.21,263.83,88,87,0.7,CN,1607897192
44,Carnarvon,-24.87,113.63,292.15,77,1,7.7,AU,1607897192
45,Tatvan,38.51,42.28,275.92,88,99,2.02,TR,1607897192
46,Barrow,71.29,-156.79,252.15,70,1,9.3,US,1607896945
47,Duncan,34.5,-97.96,273.71,95,90,9.3,US,1607897192
48,Chapulhuacán,21.17,-98.9,297.61,68,0,2.06,MX,1607897192
49,Thompson,55.74,-97.86,248.15,75,20,5.1,CA,1607897193
50,Sørland,67.67,12.69,276.15,69,40,2.6,NO,1607897193
51,Kavieng,-2.57,150.8,302.33,73,31,4.6,PG,1607897193
52,Esperance,-33.87,121.9,287.15,87,75,4.6,AU,1607897193
53,Dikson,73.51,80.55,253.22,92,100,5.36,RU,1607897193
54,Ribeira Grande,38.52,-28.7,288.15,58,40,9.3,PT,1607897193
55,Rawson,-43.3,-65.1,294.34,24,80,7.49,AR,1607896926
56,Nísia Floresta,-6.09,-35.21,300.15,74,20,6.2,BR,1607897194
57,Khatanga,71.97,102.5,252.55,92,100,3.94,RU,1607897194
58,Fortuna,40.6,-124.16,285.37,84,99,3.58,US,1607897194
59,Solnechnyy,50.72,136.63,256.89,91,100,1.92,RU,1607897194
60,Pirajuí,-22.0,-49.46,301.45,55,20,2.6,BR,1607897194
61,Arraial do Cabo,-22.97,-42.03,299.15,78,75,4.6,BR,1607896949
62,Ushuaia,-54.8,-68.3,282.15,60,40,8.2,AR,1607897183
63,Tura,25.52,90.22,288.42,70,98,1.38,IN,1607897172
64,Valera,9.32,-70.6,297.26,67,99,0.2,VE,1607897156
65,Tumaco,1.8,-78.82,297.26,92,100,4.27,CO,1607897195
66,Castlegar,49.3,-117.67,271.55,64,99,1.0,CA,1607897195
67,Koungou,-12.73,45.2,299.15,83,0,2.1,YT,1607897195
68,Ust'-Kulom,61.69,53.69,264.4,95,87,3.76,RU,1607897196
69,Avarua,-21.21,-159.78,302.15,79,52,3.1,CK,1607896909
70,Paamiut,61.99,-49.67,267.74,94,100,18.66,GL,1607897196
71,Bambous Virieux,-20.34,57.76,296.83,88,75,6.2,MU,1607896944
72,Arlit,18.74,7.39,296.5,15,0,2.74,NE,1607897196
73,Vao,-22.67,167.48,298.17,80,86,10.9,NC,1607897196
74,Paragominas,-2.97,-47.48,298.74,80,98,3.3,BR,1607897196
75,Tai’an,36.19,117.12,269.26,28,0,1.59,CN,1607897197
76,Verkhnevilyuysk,63.45,120.32,234.92,80,14,2.41,RU,1607897197
77,Oranjestad,12.52,-70.03,302.15,70,20,9.3,AW,1607897197
78,Jamestown,42.1,-79.24,273.49,93,90,3.6,US,1607897197
79,Benjamin Constant,-4.38,-70.03,304.63,62,40,2.6,BR,1607897197
80,Vaini,-21.2,-175.2,301.15,83,20,6.7,TO,1607897197
81,Liberty,31.83,-81.5,294.36,64,1,2.1,US,1607897198
82,Tuatapere,-46.13,167.68,286.48,74,49,4.02,NZ,1607897198
83,Ishigaki,24.34,124.16,293.15,88,75,7.2,JP,1607897198
84,Longyearbyen,78.22,15.64,265.15,78,75,1.5,SJ,1607897198
85,Saint Andrews,34.05,-81.13,293.25,49,20,3.1,US,1607897198
86,Burnie,-41.07,145.92,291.7,81,84,2.24,AU,1607897198
87,Cockburn Town,21.46,-71.14,300.15,74,40,4.1,TC,1607897199
88,Vardø,70.37,31.11,273.15,88,75,6.7,NO,1607897032
89,Codrington,-38.27,141.97,297.69,44,10,5.73,AU,1607897199
90,Oranmore,53.27,-8.92,282.74,87,75,6.2,IE,1607897199
91,Dombås,62.07,9.12,269.98,94,100,2.91,NO,1607897199
92,Parry Sound,45.35,-80.03,270.67,86,97,3.37,CA,1607897199
93,Beringovskiy,63.05,179.32,271.43,98,100,10.74,RU,1607897200
94,Nikolskoye,59.7,30.79,269.04,92,90,1.0,RU,1607897200
95,Thinadhoo,0.53,72.93,301.16,76,92,5.91,MV,1607897200
96,Bredasdorp,-34.53,20.04,288.15,82,68,2.1,ZA,1607897200
97,Namchi,27.17,88.35,282.51,73,55,1.88,IN,1607897200
98,Drexel Heights,32.14,-111.03,289.21,9,1,5.7,US,1607897200
99,Port Keats,-14.25,129.55,301.98,78,100,2.58,AU,1607897200
100,Lebu,-37.62,-73.65,286.61,71,15,7.4,CL,1607897201
101,Torbay,47.67,-52.73,271.36,92,90,7.7,CA,1607896927
102,Saldanha,-33.01,17.94,287.15,76,73,1.5,ZA,1607897201
103,Port Elizabeth,-33.92,25.57,293.15,94,14,3.6,ZA,1607897201
104,Clyde River,70.47,-68.59,254.15,70,90,4.1,CA,1607897201
105,Christchurch,-43.53,172.63,288.85,58,62,3.6,NZ,1607897063
106,Leningradskiy,69.38,178.42,263.92,90,100,8.21,RU,1607896926
107,Talnakh,69.49,88.4,248.15,83,0,2.0,RU,1607897081
108,Taoudenni,22.68,-3.98,294.39,23,62,4.69,ML,1607897202
109,Kahului,20.89,-156.47,299.51,58,40,2.6,US,1607897098
110,Miramar,25.99,-80.23,299.04,54,1,5.1,US,1607896941
111,Constitución,-35.33,-72.42,292.12,44,2,9.08,CL,1607897156
112,Omboué,-1.57,9.26,298.34,88,100,3.66,GA,1607897202
113,Kendari,-3.94,122.5,297.59,92,100,1.82,ID,1607897202
114,Tiksi,71.69,128.87,239.27,83,26,1.67,RU,1607897202
115,Novobirilyussy,56.95,90.67,259.14,94,100,4.15,RU,1607897203
116,Trenggalek,-8.05,111.72,296.64,88,100,0.47,ID,1607897203
117,Chokurdakh,70.63,147.92,244.24,88,100,2.75,RU,1607897203
118,Zykovo,55.95,93.15,263.15,78,40,6.0,RU,1607897203
119,Tārānagar,28.67,75.04,283.59,68,0,2.35,IN,1607897203
120,Ust-Kuyga,70.02,135.6,232.09,78,55,2.58,RU,1607897203
121,Arman',59.7,150.17,250.54,84,55,7.73,RU,1607897203
122,Cayenne,4.93,-52.33,301.15,74,0,2.1,GF,1607897204
123,Provideniya,64.38,-173.3,266.15,85,90,11.0,RU,1607897204
124,Broome,42.25,-75.83,276.53,64,90,3.6,US,1607897200
125,Nishihara,26.18,127.76,291.12,72,75,4.1,JP,1607897204
126,Porterville,36.07,-119.02,287.03,62,90,4.6,US,1607897204
127,Mahébourg,-20.41,57.7,297.15,88,75,6.2,MU,1607897204
128,Cidreira,-30.18,-50.21,294.84,93,80,0.81,BR,1607897204
129,Bengkulu,-3.8,102.27,296.8,85,100,0.96,ID,1607896999
130,Cape Town,-33.93,18.42,289.58,67,0,1.5,ZA,1607896627
131,Cairns,-16.92,145.77,298.92,74,90,0.12,AU,1607897122
132,Saskylakh,71.92,114.08,242.66,83,100,7.93,RU,1607897196
133,Port Lincoln,-34.73,135.87,297.14,61,1,6.02,AU,1607897188
134,Sal Rei,16.18,-22.92,295.15,73,75,6.2,CV,1607897205
135,George Town,5.41,100.34,298.5,94,20,1.0,MY,1607897026
136,San Fernando del Valle de Catamarca,-28.47,-65.79,295.37,67,16,2.24,AR,1607897206
137,Naruja,41.91,41.95,286.79,38,0,10.8,GE,1607897206
138,Bontang,0.13,117.5,297.58,85,100,2.2,ID,1607896944
139,Mar del Plata,-38.0,-57.56,291.22,39,0,3.1,AR,1607897082
140,Chippewa Falls,44.94,-91.39,269.93,68,90,5.1,US,1607897149
141,Ust'-Karsk,52.7,118.81,247.35,81,0,0.81,RU,1607897207
142,Katangli,51.71,143.23,257.55,92,100,4.76,RU,1607897207
143,Oyama,36.3,139.8,278.42,54,20,3.1,JP,1607897040
144,Owando,-0.48,15.9,295.9,94,8,0.98,CG,1607897207
145,Khani,41.96,42.96,284.15,60,0,9.8,GE,1607897207
146,Glenluce,54.88,-4.81,283.15,93,55,1.79,GB,1607897207
147,Tsimlyansk,47.65,42.1,272.32,97,99,6.78,RU,1607897207
148,Singapore,1.29,103.85,299.31,83,75,1.5,SG,1607896806
149,East London,-33.02,27.91,294.55,82,55,5.55,ZA,1607897201
150,Beyneu,45.32,55.2,268.1,94,29,5.49,KZ,1607897208
151,Atar,20.52,-13.05,292.75,22,49,3.17,MR,1607897208
152,Kamenka,51.32,42.77,264.58,94,88,5.51,RU,1607897208
153,Cherskiy,68.75,161.3,244.82,88,100,1.84,RU,1607897208
154,Kruisfontein,-34.0,24.73,291.48,94,9,0.45,ZA,1607897046
155,Mossamedes,-15.2,12.15,292.05,81,40,1.65,AO,1607896962
156,Zhuhai,22.28,113.57,293.27,88,40,3.1,CN,1607897102
157,Lensk,60.73,114.93,246.44,82,100,4.44,RU,1607897209
158,Tevaitoa,-16.78,-151.5,300.21,72,1,5.28,PF,1607897209
159,Pevek,69.7,170.31,258.41,91,100,0.76,RU,1607897209
160,Green Valley,31.85,-110.99,289.98,9,1,5.7,US,1607897209
161,Morant Bay,17.88,-76.41,300.76,70,20,10.3,JM,1607897209
162,Goulburn,-34.75,149.72,290.49,78,97,0.89,AU,1607897210
163,Tsogni,-2.79,10.1,297.61,90,100,2.16,GA,1607897210
164,Cedar City,37.68,-113.06,272.15,46,1,2.6,US,1607897063
165,Hobyo,5.35,48.53,298.85,76,25,8.73,SO,1607897210
166,Freeport,40.66,-73.58,285.28,54,75,7.2,US,1607897012
167,Fare,-16.7,-151.02,300.25,72,2,4.91,PF,1607897211
168,Den Helder,52.96,4.76,278.89,93,75,8.7,NL,1607897211
169,Cabo San Lucas,22.89,-109.91,297.36,64,20,5.1,MX,1607897211
170,Nouadhibou,20.93,-17.03,293.15,49,55,7.2,MR,1607897211
171,Pontianak,-0.03,109.33,296.93,94,100,1.12,ID,1607897211
172,Narsaq,60.92,-46.05,270.15,86,75,1.0,GL,1607897016
173,Saint-Augustin,51.23,-58.65,265.95,92,100,7.85,CA,1607897211
174,Lüderitz,-26.65,15.16,288.15,87,0,7.7,NA,1607897212
175,Wanning,18.8,110.4,295.97,91,90,2.71,CN,1607897212
176,New Norfolk,-42.78,147.06,292.9,51,0,1.79,AU,1607897212
177,Atasū,48.68,71.64,259.22,86,100,1.21,KZ,1607897212
178,Aix-les-Bains,45.68,5.92,276.12,93,0,3.6,FR,1607897212
179,Maturin,9.75,-63.18,297.34,90,88,2.64,VE,1607897006
180,Bubaque,11.28,-15.83,300.28,62,0,4.65,GW,1607897212
181,Panzhihua,26.59,101.71,282.84,70,4,0.74,CN,1607897213
182,Fort Myers Beach,26.45,-81.95,298.03,69,1,3.6,US,1607897155
183,Bongaigaon,26.48,90.56,289.14,84,0,1.18,IN,1607897213
184,The Valley,18.22,-63.06,300.17,78,20,3.6,AI,1607897213
185,Quatre Cocos,-20.21,57.76,296.8,88,75,6.2,MU,1607897213
186,Kieta,-6.22,155.63,302.19,68,89,1.3,PG,1607897149
187,Otradnoye,59.78,30.82,269.04,92,90,1.0,RU,1607897214
188,Port Hedland,-20.32,118.57,297.15,83,40,2.6,AU,1607897214
189,Atambua,-9.11,124.89,297.75,87,100,0.32,ID,1607897214
190,Celestún,20.87,-90.4,300.17,71,4,4.04,MX,1607897214
191,Kasane,-17.82,25.15,294.45,86,100,1.85,BW,1607897214
192,Businga,3.33,20.88,296.36,84,89,0.69,CD,1607897214
193,Faanui,-16.48,-151.75,299.86,72,4,5.09,PF,1607897204
194,Albacete,38.83,-2.0,279.15,100,0,0.5,ES,1607897215
195,Tupiza,-21.45,-65.72,295.57,25,28,4.68,BO,1607897215
196,Bururi Province,-3.85,29.63,286.91,96,100,0.71,BI,1607897215
197,La Paz,-16.5,-68.15,288.15,28,75,7.7,BO,1607896903
198,Arti,56.42,58.53,257.38,94,98,2.92,RU,1607897215
199,Lavrentiya,65.58,-171.0,264.05,84,100,15.76,RU,1607897031
200,Dunkirk,51.05,2.37,281.86,94,96,2.24,FR,1607897216
201,Jiayuguan City,39.82,98.3,260.12,83,75,0.61,CN,1607897216
202,Charters Towers,-20.1,146.27,297.8,67,99,2.14,AU,1607897216
203,Ovruch,51.32,28.8,273.34,98,100,2.62,UA,1607897216
204,Asmara,15.33,38.93,283.46,85,42,1.09,ER,1607897216
205,Wakkanai,45.41,141.67,267.14,88,100,9.22,JP,1607896957
206,Sabha,27.04,14.43,284.6,48,0,3.38,LY,1607897217
207,Russell,32.35,-85.2,291.99,72,75,2.1,US,1607897217
208,Port Hardy,50.7,-127.42,279.54,81,75,7.7,CA,1607897217
209,Maïné Soroa,13.21,12.02,296.76,19,0,3.08,NE,1607897217
210,Klaksvík,62.23,-6.59,280.15,81,100,13.9,FO,1607897217
211,Souillac,-20.52,57.52,297.15,88,75,6.2,MU,1607897217
212,Makakilo City,21.35,-158.09,300.64,61,1,3.1,US,1607897217
213,Kalakamati,-20.59,27.31,293.14,88,100,1.09,BW,1607897218
214,Puerto Ayacucho,5.66,-67.62,300.02,84,98,2.2,VE,1607897218
215,Los Llanos de Aridane,28.66,-17.92,289.36,82,90,1.0,ES,1607897218
216,Destin,30.39,-86.5,293.67,88,75,2.6,US,1607897218
217,Saint-Philippe,-21.36,55.77,291.99,88,75,6.7,RE,1607897218
218,Schrobenhausen,48.55,11.27,276.48,93,75,0.5,DE,1607897218
219,Heihe,50.24,127.49,248.15,62,0,3.0,CN,1607897218
220,Egvekinot,66.32,-179.17,261.93,91,100,7.39,RU,1607897219
221,Vila Velha,-20.33,-40.29,298.92,74,0,6.7,BR,1607897219
222,Strezhevoy,60.73,77.59,260.15,84,0,4.0,RU,1607897219
223,Nome,64.5,-165.41,265.15,52,1,10.3,US,1607897042
224,Sechura,-5.56,-80.82,297.85,58,23,8.29,PE,1607897220
225,Touros,-5.2,-35.46,300.15,74,20,4.1,BR,1607897220
226,Port Blair,11.67,92.75,298.45,75,63,2.71,IN,1607897220
227,San Antonio,29.42,-98.49,296.15,28,1,7.7,US,1607896979
228,Mombetsu,44.35,143.35,265.95,90,99,3.46,JP,1607897220
229,La Ronge,55.1,-105.28,252.65,64,0,3.6,CA,1607897220
230,Caravelas,-17.71,-39.25,296.92,80,1,2.79,BR,1607897220
231,Champerico,14.3,-91.92,300.49,52,40,5.1,GT,1607897221
232,Bathsheba,13.22,-59.52,300.15,78,20,3.6,BB,1607897208
233,San Patricio,28.02,-97.52,298.3,58,75,10.8,US,1607897221
234,Novoagansk,61.94,76.66,260.59,96,100,3.61,RU,1607897221
235,São João da Barra,-21.64,-41.05,300.15,74,0,10.3,BR,1607897221
236,Parabel',58.7,81.48,258.82,95,100,2.86,RU,1607897222
237,Nanortalik,60.14,-45.24,272.58,96,100,5.83,GL,1607897222
238,Ambon City,-3.7,128.18,297.15,88,40,4.1,ID,1607897222
239,Stranda,62.31,6.94,273.38,89,88,2.92,NO,1607897222
240,Ngorongoro,-3.24,35.49,284.56,99,26,1.42,TZ,1607897222
241,Vila Franca do Campo,37.72,-25.43,287.15,76,75,4.6,PT,1607897223
242,Norman Wells,65.28,-126.83,234.15,72,20,2.1,CA,1607897210
243,Bethel,41.37,-73.41,284.55,54,1,4.6,US,1607897123
244,Saint George,37.1,-113.58,279.19,32,1,1.75,US,1607897086
245,Taikang,46.83,124.42,253.25,75,0,3.17,CN,1607897223
246,Suntar,62.14,117.63,241.42,83,99,3.05,RU,1607897223
247,Séguéla,7.96,-6.67,299.75,63,20,3.47,CI,1607897223
248,Colares,38.8,-9.45,288.89,100,100,4.01,PT,1607897224
249,Biedenkopf,50.92,8.53,275.08,98,61,2.23,DE,1607897224
250,Sinnamary,5.38,-52.95,299.15,84,2,3.47,GF,1607897224
251,San Miguel de Tucumán,-26.82,-65.22,295.15,53,75,2.1,AR,1607897224
252,Fairbanks,64.84,-147.72,257.38,70,75,3.1,US,1607897182
253,Grindavik,63.84,-22.43,280.15,75,75,6.7,IS,1607897211
254,Borovoy,55.43,86.08,260.15,84,90,4.0,RU,1607897214
255,Vernon,50.26,-119.27,272.93,86,99,2.6,CA,1607897225
256,Sumbe,-11.21,13.84,296.5,78,22,1.92,AO,1607897225
257,Salinas,36.68,-121.66,286.59,87,90,0.69,US,1607897078
258,Basco,20.45,121.97,297.77,84,53,8.36,PH,1607897225
259,Kavaratti,10.57,72.64,300.66,68,2,1.42,IN,1607897225
260,Maningrida,-12.07,134.27,299.99,83,100,3.42,AU,1607897225
261,Severo-Kuril'sk,50.68,156.12,275.25,92,100,20.04,RU,1607897225
262,Linqu,36.52,118.54,266.57,76,0,2.19,CN,1607897226
263,Hofn,64.25,-15.21,278.0,85,100,13.33,IS,1607897226
264,Mazagão,-0.12,-51.29,304.15,62,20,5.1,BR,1607897139
265,Tuensang,26.28,94.83,286.2,83,47,0.6,IN,1607897226
266,Genhe,50.78,121.52,242.65,84,9,1.52,CN,1607897226
267,Sabang,5.89,95.32,300.23,72,68,0.34,ID,1607897227
268,Udachny,66.42,112.4,242.15,74,0,3.0,RU,1607897227
269,Jinchang,38.5,102.17,261.87,80,0,0.41,CN,1607897227
270,Marystown,47.17,-55.15,274.57,95,100,10.74,CA,1607897156
271,Ambilobe,-13.2,49.05,296.75,85,62,1.23,MG,1607897227
272,Jalu,29.03,21.55,287.44,52,0,6.84,LY,1607897227
273,Alice Springs,-23.7,133.88,300.9,65,31,5.7,AU,1607897206
274,Libertad,8.94,125.5,296.15,89,26,0.95,PH,1607897227
275,Mazara del Vallo,37.66,12.59,283.99,71,40,5.7,IT,1607897228
276,Shingū,33.73,135.98,281.54,75,53,3.87,JP,1607897228
277,Marawi,8.0,124.29,296.48,89,1,2.68,PH,1607897228
278,Haines Junction,60.75,-137.51,258.15,84,100,1.0,CA,1607897228
279,São Raimundo das Mangabeiras,-7.02,-45.48,302.62,45,6,2.33,BR,1607897228
280,Nacala,-14.54,40.67,299.66,83,12,4.27,MZ,1607897228
281,Puerto Maldonado,-12.6,-69.18,302.15,79,40,3.1,PE,1607897227
282,Ostrovnoy,68.05,39.51,268.44,97,95,3.3,RU,1607897229
283,Øksfjord,70.24,22.35,272.15,74,3,6.7,NO,1607897229
284,Along,28.17,94.77,286.16,86,78,0.66,IN,1607897229
285,Buraidah,26.33,43.98,286.15,82,0,3.1,SA,1607897229
286,Kiryat Gat,31.61,34.76,294.23,63,0,1.0,IL,1607897140
287,Jasper,37.2,-94.35,273.52,86,90,3.6,US,1607897230
288,Likasi,-10.98,26.73,289.25,99,98,1.44,CD,1607897230
289,Basirhat,22.67,88.87,290.15,93,84,1.51,IN,1607897230
290,Quang Ngai,15.12,108.8,296.47,91,72,1.44,VN,1607897230
291,Frutigen,46.59,7.65,275.65,83,99,2.15,CH,1607897230
292,Bonavista,48.65,-53.11,269.89,100,100,1.5,CA,1607897230
293,Östersund,63.18,14.64,273.93,97,90,4.1,SE,1607897044
294,Coquimbo,-29.95,-71.34,290.15,77,20,5.7,CL,1607897231
295,Goubellat,36.54,9.66,286.15,62,20,4.1,TN,1607897231
296,Peleduy,59.63,112.74,244.3,82,95,2.35,RU,1607897231
297,Tilichiki,60.47,166.1,256.9,96,91,3.79,RU,1607897231
298,Kloulklubed,7.04,134.26,300.15,83,75,2.6,PW,1607897017
299,Saint-Pierre,-21.34,55.48,292.37,88,75,6.7,RE,1607897231
300,Kununurra,-15.77,128.73,301.15,83,100,3.1,AU,1607897069
301,Santa Cruz de la Sierra,-17.8,-63.17,301.53,74,75,6.7,BO,1607897210
302,Kalevala,65.2,31.17,269.69,97,100,1.64,RU,1607897232
303,Rodolfo Sánchez Taboada,31.72,-116.57,292.04,61,25,1.34,MX,1607897232
304,Lorengau,-2.02,147.27,301.9,79,79,5.29,PG,1607897232
305,Paita,-5.09,-81.11,294.55,75,2,8.21,PE,1607897232
306,Hasaki,35.73,140.83,276.34,86,75,4.1,JP,1607897211
307,São Filipe,14.9,-24.5,297.19,74,24,1.91,CV,1607897232
308,Santo Domingo,18.5,-69.99,301.55,79,75,5.1,DO,1607897233
309,Bud,39.45,-86.18,277.07,80,90,1.81,US,1607897233
310,La Providencia,28.72,-111.58,295.72,30,0,4.92,MX,1607897233
311,Itaituba,-4.28,-55.98,303.15,79,75,1.5,BR,1607897179
312,Seinäjoki,62.79,22.83,269.91,84,94,2.16,FI,1607897233
313,Rawlins,41.79,-107.24,268.15,49,1,9.8,US,1607897087
314,Doha,25.29,51.53,290.79,72,0,3.6,QA,1607897233
315,San Quintín,30.48,-115.95,291.48,55,0,2.72,MX,1607897234
316,Stuttgart,48.78,9.18,276.74,93,0,1.5,DE,1607897185
317,Tautira,-17.73,-149.15,303.15,62,40,6.7,PF,1607897234
318,Goderich,43.75,-81.72,274.15,74,100,3.1,CA,1607897234
319,Waipawa,-41.41,175.52,287.3,76,82,6.2,NZ,1607897235
320,Richards Bay,-28.78,32.04,295.77,89,71,2.19,ZA,1607897148
321,Valparaíso,-33.04,-71.63,300.29,26,0,9.3,CL,1607897235
322,Asău,46.43,26.4,274.26,96,66,1.51,RO,1607897207
323,Quesnel,53.0,-122.5,269.15,79,90,2.1,CA,1607897235
324,Madisonville,37.33,-87.5,280.24,65,90,3.6,US,1607897011
325,Sitka,57.05,-135.33,280.15,39,75,7.7,US,1607897235
326,Tasiilaq,65.61,-37.64,276.15,64,100,7.09,GL,1607897236
327,Mana,5.66,-53.78,299.23,85,1,4.03,GF,1607897236
328,Bandarbeyla,9.49,50.81,296.16,68,0,7.39,SO,1607897207
329,Cowra,-33.83,148.68,289.82,74,0,2.24,AU,1607897236
330,Langsa,4.47,97.97,295.92,93,100,0.96,ID,1607897236
331,‘Āhuimanu,21.44,-157.84,300.89,69,20,3.1,US,1607897236
332,Karratha,-20.74,116.85,297.39,69,17,3.77,AU,1607897092
333,Timrå,62.49,17.33,274.46,100,100,1.0,SE,1607897237
334,Saint-Ambroise,48.55,-71.33,272.65,92,100,4.6,CA,1607897237
335,La Palma,33.85,-118.05,292.82,15,1,1.5,US,1607897237
336,Murray Bridge,-35.12,139.27,298.92,44,89,2.68,AU,1607897237
337,Teuchitlán,20.68,-103.87,297.89,25,88,4.47,MX,1607897237
338,Itaguaçu,-19.8,-40.86,295.47,73,100,0.59,BR,1607897237
339,Hwange,-18.37,26.5,293.91,93,96,1.78,ZW,1607897238
340,Coyhaique,-45.58,-72.07,285.15,58,90,6.2,CL,1607897238
341,Gopālpur,19.27,84.92,294.72,71,0,1.85,IN,1607897238
342,Ossora,59.24,163.07,257.25,87,11,2.34,RU,1607897238
343,Anori,-3.77,-61.64,302.17,68,84,0.62,BR,1607897238
344,Hirara,24.8,125.28,293.15,82,75,4.6,JP,1607897238
345,Lamar,33.67,-95.58,277.07,93,90,7.2,US,1607897222
346,Lima,-12.04,-77.03,294.13,68,20,8.7,PE,1607897006
347,Havøysund,71.0,24.66,272.65,93,75,2.1,NO,1607897239
348,Maumere,-8.62,122.21,299.93,76,100,1.15,ID,1607897239
349,Meulaboh,4.14,96.13,298.16,84,100,1.42,ID,1607897239
350,Bulgan,48.81,103.53,252.32,81,21,0.89,MN,1607897239
351,Nhulunbuy,-12.23,136.77,300.15,78,100,1.5,AU,1607897239
352,Ancud,-41.87,-73.82,282.4,76,90,6.7,CL,1607897106
353,Zhicheng,30.3,111.5,274.61,55,97,3.74,CN,1607897240
354,Isangel,-19.55,169.27,303.15,74,75,4.1,VU,1607897240
355,Ada,43.42,-116.13,272.44,96,90,8.2,US,1607897240
356,Poum,-20.23,164.02,300.58,80,47,11.4,NC,1607897240
357,Mitsamiouli,-11.38,43.28,300.39,68,6,2.12,KM,1607897240
358,Beloha,-25.17,45.05,296.6,62,0,5.54,MG,1607897240
359,Olovyannaya,50.95,115.57,246.92,84,0,1.18,RU,1607897241
360,Chui,-33.7,-53.46,293.88,70,100,5.94,UY,1607897241
361,Māngrol,21.12,70.12,292.84,45,53,6.52,IN,1607897241
362,Palmer,42.16,-72.33,282.79,62,75,5.1,US,1607897241
363,Warmbad,-28.45,18.73,293.62,28,0,4.11,NA,1607897241
364,Baykit,61.67,96.37,251.58,87,100,0.97,RU,1607897241
365,Yerbogachën,61.28,108.01,242.43,85,96,4.03,RU,1607897204
366,Laguna,38.42,-121.42,284.21,93,90,6.2,US,1607897235
367,Soe,-9.86,124.28,293.51,98,75,0.69,ID,1607897213
368,Aswān,24.09,32.91,293.73,31,27,3.18,EG,1607897242
369,Wajid,3.81,43.25,297.02,27,0,4.66,SO,1607897242
370,Avera,33.19,-82.53,291.91,93,90,1.5,US,1607897242
371,Pagudpud,18.56,120.79,297.15,94,20,1.5,PH,1607897242
372,Nazareno,25.38,-103.42,296.8,19,75,5.97,MX,1607897242
373,Castro,-24.79,-50.01,293.73,89,52,2.24,BR,1607897231
374,Coahuayana Viejo,18.73,-103.68,301.15,58,20,5.1,MX,1607897243
375,Carndonagh,55.25,-7.27,282.51,88,99,4.81,IE,1607897243
376,Plettenberg Bay,-34.05,23.37,292.64,79,0,2.96,ZA,1607897243
377,Ontario,34.06,-117.65,291.96,17,75,2.6,US,1607897243
378,Ilulissat,69.22,-51.1,269.15,73,100,3.1,GL,1607897244
379,San Matías,-16.37,-58.4,306.12,43,53,2.58,BO,1607897244
380,Fianarantsoa,-21.43,47.08,288.0,92,93,2.89,MG,1607897244
381,Jiuquan,39.74,98.52,260.55,85,75,0.39,CN,1607897244
382,Gunjur,13.2,-16.73,295.15,83,0,2.1,GM,1607897244
383,Alofi,-19.06,-169.92,296.15,100,90,363.7,NU,1607897244
384,San Jose,37.34,-121.89,287.49,82,90,3.6,US,1607896994
385,San Francisco,37.77,-122.42,285.84,94,100,1.79,US,1607897200
386,Yangi Marg`ilon,40.43,71.72,272.15,80,90,1.17,UZ,1607897245
387,Erenhot,43.65,111.98,252.33,85,0,2.75,CN,1607897245
388,Salta,-24.79,-65.41,293.15,82,90,3.6,AR,1607897245
389,Kingaroy,-26.53,151.83,291.84,100,75,7.2,AU,1607897245
390,Saint Lawrence,36.06,14.2,287.69,71,20,7.7,MT,1607897245
391,Chicama,-7.84,-79.15,292.15,88,90,3.1,PE,1607897093
392,Mount Isa,-20.73,139.5,300.15,61,100,6.7,AU,1607897246
393,Geraldton,-28.77,114.6,285.15,81,0,2.1,AU,1607897246
394,Rapid Valley,44.06,-103.15,270.53,63,40,5.1,US,1607897246
395,Dingle,11.0,122.67,297.25,91,73,2.82,PH,1607897245
396,Arrondissement du Havre,49.58,0.33,284.32,93,75,5.1,FR,1607897246
397,Phimai,15.22,102.49,297.04,99,91,1.5,TH,1607897246
398,Farmington,36.73,-108.22,271.32,50,1,2.1,US,1607897246
399,Kokoda,-8.88,147.74,301.05,59,99,0.28,PG,1607897031
400,Pilar,-9.6,-35.96,299.15,78,75,3.6,BR,1607897247
401,Ampanihy,-24.7,44.75,297.91,54,0,3.02,MG,1607897240
402,Hualmay,-11.1,-77.61,294.46,75,40,4.69,PE,1607897247
403,Davenda,53.56,119.32,244.98,80,0,1.75,RU,1607897247
404,Eslöv,55.84,13.3,274.8,92,55,2.04,SE,1607897247
405,Vestmanna,62.16,-7.17,280.15,81,100,13.9,FO,1607897213
406,Pirmasens,49.2,7.61,275.49,100,75,1.5,DE,1607897202
407,Yenagoa,4.92,6.26,297.87,93,97,1.81,NG,1607897248
408,Lata,40.16,-8.33,287.32,91,100,0.45,PT,1607897248
409,Pacific Grove,36.62,-121.92,286.87,87,90,3.6,US,1607897126
410,Kismayo,-0.36,42.55,299.01,78,12,5.6,SO,1607897248
411,Dakar,14.69,-17.44,297.15,78,0,3.1,SN,1607896784
412,Gemeente Wageningen,51.97,5.67,279.25,87,90,6.2,NL,1607897062
413,Luanda,-8.84,13.23,298.15,73,20,2.1,AO,1607896813
414,Mabay,6.06,124.47,298.53,77,65,1.61,PH,1607897249
415,Evensk,61.95,159.23,258.31,86,98,5.56,RU,1607897249
416,Krasnokamensk,50.1,118.04,246.13,77,0,1.83,RU,1607897045
417,Praia,14.92,-23.51,296.15,78,20,5.1,CV,1607897080
418,Chapais,49.78,-74.85,265.15,92,90,3.6,CA,1607897230
419,Vestmannaeyjar,63.44,-20.27,279.37,84,100,12.83,IS,1607897249
420,Svobodnyy,51.4,128.13,245.04,83,6,4.1,RU,1607897249
421,Presque Isle,46.68,-68.02,273.16,96,90,1.43,US,1607897250
422,Praia da Vitória,38.73,-27.07,285.81,76,40,7.6,PT,1607897250
423,Namatanai,-3.67,152.43,301.77,75,71,2.17,PG,1607897250
424,Ankazoabo,-22.28,44.52,296.9,70,92,2.8,MG,1607897107
425,Yulara,-25.24,130.99,299.15,61,89,0.5,AU,1607896977
426,Samarai,-10.62,150.67,301.07,74,100,4.12,PG,1607897226
427,Barcelos,41.54,-8.62,286.31,100,75,8.2,PT,1607897038
428,Flinders,-34.58,150.86,293.79,89,78,1.34,AU,1607897251
429,Pangnirtung,66.15,-65.71,252.15,58,75,4.1,CA,1607897218
430,Garissa,-0.45,39.64,298.67,73,40,3.4,KE,1607897251
431,Tazovsky,67.47,78.7,249.97,89,100,3.51,RU,1607897251
432,Besskorbnaya,44.64,41.31,276.12,79,72,5.78,RU,1607897251
433,Rocha,-34.48,-54.33,292.66,60,100,4.61,UY,1607897252
434,Xiazhen,34.8,117.11,268.86,67,64,3.06,CN,1607897252
435,Banjar,-8.19,114.97,299.15,94,75,3.6,ID,1607897252
436,Vanavara,60.34,102.28,248.44,89,100,2.72,RU,1607897252
437,Sola,-13.88,167.55,302.15,89,75,5.81,VU,1607897252
438,Marsh Harbour,26.54,-77.06,297.41,74,10,2.23,BS,1607897252
439,Diré,12.28,-10.97,298.17,23,19,0.97,ML,1607897252
440,Abu Samrah,35.3,37.18,285.32,69,92,3.92,SY,1607897253
441,Huilong,31.81,121.66,275.37,87,99,1.79,CN,1607897253
442,Batagay-Alyta,67.8,130.41,236.46,67,0,0.82,RU,1607897253
443,Carbonia,39.17,8.52,282.11,87,20,3.1,IT,1607897253
444,Yuncheng,35.02,110.99,268.37,70,100,1.59,CN,1607897223
445,Iquitos,-3.75,-73.25,298.15,88,75,3.6,PE,1607897253
446,Tuy Hoa,13.08,109.3,296.38,91,87,1.37,VN,1607897253
447,Sur,22.57,59.53,294.79,49,0,5.25,OM,1607897254
448,Vostok,46.49,135.88,247.48,91,95,1.94,RU,1607897247
449,Ukiah,39.15,-123.21,283.36,87,90,3.1,US,1607897237
450,Itacoatiara,-3.14,-58.44,302.97,59,74,0.92,BR,1607897254
451,Maxixe,-23.86,35.35,298.12,90,1,3.27,MZ,1607897254
452,Ustrzyki Dolne,49.43,22.59,270.93,96,100,1.33,PL,1607897254
453,Naryan-Mar,67.67,53.09,271.18,98,100,7.46,RU,1607897254
454,Bonthe,7.53,-12.51,299.49,83,9,3.05,SL,1607897255
455,Porto-Novo,6.5,2.6,301.15,88,20,4.6,BJ,1607897238
456,Sakakah,29.97,40.21,287.15,33,0,5.7,SA,1607897163
457,Kumul,42.8,93.45,261.31,72,0,1.33,CN,1607897230
458,Ahvāz,31.32,48.67,283.15,81,0,1.0,IR,1607897006
459,Ingham,42.6,-84.38,274.69,74,90,1.91,US,1607897255
460,Sterling,39.01,-77.43,284.76,57,1,3.6,US,1607897212
461,Haileybury,47.45,-79.64,263.15,78,40,3.1,CA,1607897255
462,Allāpalli,19.42,80.07,290.3,70,9,1.2,IN,1607897256
463,Upington,-28.45,21.26,298.15,22,0,1.5,ZA,1607897256
464,San Cristobal,7.77,-72.22,303.15,58,20,4.1,VE,1607897022
465,Leh,34.17,77.58,257.71,64,0,0.61,IN,1607897256
466,Alta Floresta,-9.88,-56.09,298.53,79,99,1.28,BR,1607897256
467,Chifeng,42.27,118.96,250.2,80,0,2.88,CN,1607897256
468,Margate,51.38,1.39,283.79,92,100,3.13,GB,1607897256
469,Garbolovo,60.34,30.5,269.54,79,86,1.25,RU,1607897257
470,Bridlington,54.08,-0.19,282.76,93,97,4.6,GB,1607897257
471,Neiafu,-18.65,-173.98,298.15,94,90,9.3,TO,1607897257
472,Luziânia,-16.25,-47.95,298.99,45,0,4.6,BR,1607897257
473,Kudahuvadhoo,2.67,72.89,301.0,74,0,4.91,MV,1607897257
474,Armidale,-30.52,151.65,287.59,83,100,3.13,AU,1607897196
475,Piacenza,45.05,9.7,277.41,88,0,0.1,IT,1607897257
476,Nicoya,10.15,-85.45,306.15,43,0,6.7,CR,1607897258
477,Necochea,-38.55,-58.74,291.48,65,0,4.24,AR,1607897225
478,Myaundzha,63.05,147.19,246.07,84,100,1.53,RU,1607897258
479,Balad,34.02,44.15,287.12,48,37,1.12,IQ,1607897258
480,Gonbad-e Kāvūs,37.25,55.17,274.15,80,0,1.39,IR,1607897258
481,Singleton,-32.57,151.18,292.59,90,100,4.4,AU,1607897258
482,Kolpashevo,58.31,82.91,258.26,95,100,2.55,RU,1607897259
483,Byron Bay,-28.65,153.62,293.6,83,90,12.3,AU,1607896595
484,Ola,59.58,151.28,250.54,86,97,7.07,RU,1607897259
485,Hadejia,12.45,10.04,297.61,18,0,3.04,NG,1607897259
486,Moerai,-22.43,-151.33,298.32,67,82,1.29,PF,1607897259
487,Phalodi,27.13,72.37,285.22,51,0,3.5,IN,1607897259
488,San Martín,-33.08,-68.47,300.15,18,0,6.2,AR,1607897260
489,Ayabaca,-4.64,-79.71,285.96,100,100,1.3,PE,1607897260
490,Pāsighāt,28.07,95.33,289.33,76,94,1.18,IN,1607897252
491,Andújar,38.04,-4.05,285.37,90,100,1.21,ES,1607897260
492,Shakawe,-18.37,21.85,296.29,68,99,3.24,BW,1607897260
493,Khawhai,23.37,93.12,280.76,100,30,0.89,IN,1607897260
494,Lewiston,44.1,-70.21,276.77,100,90,2.18,US,1607897261
495,Bendigo,-36.77,144.28,297.08,48,0,0.89,AU,1607897107
496,Suba,10.84,121.01,301.44,79,91,6.59,PH,1607897261
497,Nguruka,-5.11,31.04,291.65,92,97,0.2,TZ,1607897021
498,Çumra,37.57,32.77,281.15,87,75,3.1,TR,1607897261
499,Adré,13.47,22.2,294.99,20,100,2.5,TD,1607897261
500,Cervignano del Friuli,45.82,13.34,276.0,93,0,1.5,IT,1607897261
501,Sulęcin,52.44,15.12,276.3,100,90,0.65,PL,1607897262
502,Gallup,35.53,-108.74,271.19,58,1,1.95,US,1607897108
503,Alugan,12.22,125.48,300.23,81,97,3.68,PH,1607897262
504,Hervey Bay,-25.3,152.85,295.37,93,81,1.79,AU,1607897262
505,Zalesovo,53.99,84.74,257.91,94,100,2.87,RU,1607897262
506,Uralets,57.66,59.65,258.17,94,66,4.99,RU,1607897262
507,Lucapa,-8.42,20.74,291.89,99,100,2.53,AO,1607897263
508,Tessalit,20.2,1.01,292.77,26,0,4.3,ML,1607897263
509,Pirovskoye,57.63,92.27,258.77,94,100,4.28,RU,1607897263
510,Williams Lake,52.14,-122.14,272.15,68,90,2.89,CA,1607897045
511,Vrangel',42.73,133.08,260.69,82,0,7.07,RU,1607897263
512,Ponta do Sol,32.67,-17.1,288.42,82,20,1.0,PT,1607896971
513,Arona,28.1,-16.68,291.18,77,75,2.6,ES,1607897263
514,Līsakovsk,52.54,62.49,260.59,92,0,2.53,KZ,1607897264
515,Aromashevo,56.86,68.64,261.1,95,20,4.32,RU,1607897264
516,Turbat,26.0,63.04,289.68,32,0,4.12,PK,1607897264
517,Uppsala County,60.0,17.75,273.9,90,100,3.1,SE,1607897264
518,Renala Khurd,30.88,73.6,283.66,65,0,0.67,PK,1607897264
519,Siocon,7.71,122.14,298.96,83,66,2.75,PH,1607897265
520,Wewak,-3.55,143.63,298.83,86,100,2.52,PG,1607897265
521,Guerrero Negro,27.98,-114.06,295.68,20,0,7.77,MX,1607897265
522,Aleksandrov Gay,50.15,48.57,262.02,93,62,4.46,RU,1607897265
523,Salinópolis,-0.61,-47.36,300.3,78,89,4.52,BR,1607897266
524,Kiunga,-6.12,141.29,297.68,96,91,0.57,PG,1607897266
525,Muli,2.92,73.57,301.07,74,41,4.87,MV,1607897266
526,Careiro da Várzea,-3.2,-59.81,303.15,74,40,3.6,BR,1607897266
527,Bilibino,68.05,166.44,253.93,86,100,2.1,RU,1607897266
528,Río Tercero,-32.17,-64.11,298.15,22,0,1.79,AR,1607897266
529,Hutchinson,38.06,-97.93,276.08,51,1,5.1,US,1607897266
530,Shiozawa,37.03,138.85,275.34,92,100,3.01,JP,1607896990
531,Tataouine,32.93,10.45,285.15,50,3,2.6,TN,1607897267
532,Stann Creek Town,16.97,-88.23,302.37,79,40,3.6,BZ,1607897267
533,Fort-Shevchenko,44.51,50.26,273.27,91,0,10.19,KZ,1607897267
534,Encheng,22.18,112.3,292.56,90,99,2.0,CN,1607897267
535,Kampene,-3.6,26.67,291.3,98,77,0.59,CD,1607897267
536,Saquarema,-22.92,-42.51,299.15,78,75,4.6,BR,1607897078
537,Bragança,-1.05,-46.77,298.45,83,94,1.41,BR,1607897268
538,Iqaluit,63.75,-68.51,261.15,66,40,5.7,CA,1607897218
539,Zaranj,30.97,61.88,274.15,47,0,9.3,AF,1607897268
540,Quincy,42.25,-71.0,284.8,62,100,4.6,US,1607897174
541,Upata,8.01,-62.4,296.48,96,100,0.45,VE,1607897268
542,Blyznyuky,48.86,36.56,273.75,94,100,6.48,UA,1607897268
543,Okha,53.57,142.95,261.29,96,90,5.76,RU,1607897269
544,Hengyang,26.89,112.61,275.56,86,100,5.05,CN,1607897269
545,Neftegorsk,52.8,51.17,261.25,94,100,2.24,RU,1607897269
546,Namanyere,-7.52,31.05,288.16,92,73,0.65,TZ,1607897269
547,Marzuq,14.4,46.47,283.16,48,0,1.2,YE,1607897269
548,Blantyre,-15.79,35.01,294.34,80,100,1.46,MW,1607897269
549,Linguère,15.4,-15.12,298.15,38,0,2.1,SN,1607897270
550,College,64.86,-147.8,257.34,70,75,3.1,US,1607897132
551,Halkirk,52.28,-112.15,254.68,100,3,4.1,CA,1607897270
552,Talara,-4.58,-81.27,294.43,78,9,8.1,PE,1607897256
553,Matara,5.95,80.54,296.6,89,98,2.09,LK,1607897270
554,Mangai,-4.05,19.53,293.47,90,69,0.7,CD,1607897270
555,Antipovka,49.83,45.31,265.01,96,99,4.81,RU,1607897271
556,Shimoda,34.67,138.95,280.93,65,38,2.68,JP,1607897179
557,Manta,-0.95,-80.73,303.15,58,75,4.6,EC,1607897271
558,Myitkyina,25.38,97.4,289.76,74,49,0.94,MM,1607897271
