,City,Lat,Lng,Max Temp,Humidity,Cloudiness,Wind Speed,Country,Date
0,Lavrentiya,65.58,-171.0,15.96,96,100,14.14,RU,1608080005
1,Puerto Ayora,-0.74,-90.35,72.0,90,98,5.01,EC,1608079988
2,Atuona,-9.8,-139.03,78.87,77,6,17.63,PF,1608080005
3,Pevek,69.7,170.31,11.71,91,100,8.52,RU,1608080005
4,Almeirim,-1.52,-52.58,75.38,90,58,2.8,BR,1608080005
5,Yar-Sale,66.83,70.83,-2.16,91,100,15.84,RU,1608079914
6,Matagami,49.75,-77.63,-14.8,75,1,3.36,CA,1608080005
7,Hobart,-42.88,147.33,56.86,44,75,10.29,AU,1608079971
8,Três Barras,-26.11,-50.32,64.58,97,0,2.24,BR,1608080006
9,Mataura,-46.19,168.86,63.0,81,99,7.0,NZ,1608079867
10,Vestmanna,62.16,-7.17,44.6,100,100,8.05,FO,1608080006
11,Vaini,-21.2,-175.2,78.8,83,40,19.46,TO,1608080006
12,Punta Arenas,-53.15,-70.92,48.09,66,0,24.16,CL,1608080006
13,Hilo,19.73,-155.09,74.5,65,20,6.93,US,1608079879
14,Saskylakh,71.92,114.08,-32.06,82,11,3.94,RU,1608079989
15,Geraldton,-28.77,114.6,75.2,44,0,12.75,AU,1608080007
16,Narsaq,60.92,-46.05,39.2,35,0,27.51,GL,1608080007
17,Saint Paul Harbor,57.79,-152.41,35.6,74,75,4.7,US,1608080007
18,Rikitea,-23.12,-134.97,77.85,67,1,3.87,PF,1608080007
19,Yellowknife,62.46,-114.35,-31.83,66,40,4.7,CA,1608080007
20,Provideniya,64.38,-173.3,19.4,73,90,13.42,RU,1608080007
21,Boralday,43.36,76.86,15.8,85,90,6.71,KZ,1608080007
22,Albany,42.6,-73.97,24.53,38,100,1.01,US,1608080008
23,Jamestown,42.1,-79.24,23.67,73,75,6.42,US,1608080008
24,Lingao,19.91,109.69,63.0,78,100,16.82,CN,1608080008
25,Bendigo,-36.77,144.28,86.14,58,77,1.01,AU,1608080008
26,Worland,44.02,-107.96,24.03,79,1,3.24,US,1608080008
27,Kavieng,-2.57,150.8,85.98,66,84,3.76,PG,1608080008
28,Pareora,-44.49,171.21,65.17,58,72,10.47,NZ,1608080009
29,Paso de Patria,-27.25,-58.55,84.2,66,40,8.99,AR,1608080009
30,Butaritari,3.07,172.79,82.15,80,97,19.82,KI,1608080009
31,Te Anau,-45.42,167.72,62.6,62,100,7.4,NZ,1608080009
32,Leopold,-38.18,144.47,67.21,68,40,8.05,AU,1608080009
33,Saldanha,-33.01,17.94,60.8,72,0,12.75,ZA,1608079817
34,Bethel,41.37,-73.41,27.68,50,1,5.82,US,1608080010
35,Port Alfred,-33.59,26.89,63.0,88,1,3.0,ZA,1608080010
36,Tigil',57.8,158.67,20.71,93,98,7.7,RU,1608080010
37,Qasigiannguit,68.82,-51.19,24.8,53,2,20.8,GL,1608080010
38,George Town,5.41,100.34,76.41,94,20,2.24,MY,1608079890
39,Clyde River,70.47,-68.59,-0.4,77,1,24.16,CA,1608080010
40,Castro,-24.79,-50.01,63.46,93,0,1.88,BR,1608079856
41,Tuatapere,-46.13,167.68,63.0,81,100,7.0,NZ,1608080010
42,Dandong,40.13,124.39,11.28,74,0,9.04,CN,1608080011
43,Saint George,37.1,-113.58,48.2,29,1,2.53,US,1608079931
44,Touros,-5.2,-35.46,78.8,83,20,13.87,BR,1608080011
45,Tabou,4.42,-7.35,78.3,85,100,6.06,CI,1608079994
46,Jardim de Piranhas,-6.38,-37.35,81.48,62,100,13.29,BR,1608080011
47,Peremyshlyany,49.67,24.56,32.9,93,90,8.95,UA,1608080011
48,Oranjemund,-28.55,16.43,61.25,79,0,15.55,NA,1608080011
49,Caniço,32.63,-16.85,59.45,67,20,5.82,PT,1608080012
50,Ushuaia,-54.8,-68.3,41.0,93,75,32.21,AR,1608079869
51,Porangatu,-13.44,-49.15,76.1,60,0,0.92,BR,1608080012
52,Qaanaaq,77.48,-69.36,1.71,69,0,7.81,GL,1608080012
53,Wangou,42.06,126.91,-2.25,76,0,4.32,CN,1608080012
54,Lagoa,39.05,-27.98,60.03,76,100,13.22,PT,1608080012
55,Husavik,66.04,-17.34,37.4,86,90,10.29,IS,1608080013
56,Bayonet Point,28.33,-82.68,58.68,82,0,4.76,US,1608080013
57,Bandarbeyla,9.49,50.81,73.85,81,82,20.71,SO,1608080013
58,Dunedin,-45.87,170.5,61.0,72,100,10.0,NZ,1608080013
59,Mahébourg,-20.41,57.7,77.0,94,40,14.99,MU,1608080013
60,Vila Franca do Campo,37.72,-25.43,60.8,72,20,9.17,PT,1608080013
61,Fortuna,40.6,-124.16,51.1,92,79,1.01,US,1608080014
62,Nizhniy Tsasuchey,50.52,115.13,-2.16,86,12,3.47,RU,1608080014
63,Werda,-25.27,23.28,77.23,54,0,6.33,BW,1608080014
64,Simao,22.79,100.97,59.07,92,25,1.7,CN,1608080014
65,Kozhva,65.11,57.05,11.82,96,100,8.48,RU,1608080015
66,Kuandian,40.73,124.78,7.18,70,0,4.05,CN,1608080015
67,Kastornoye,51.83,38.13,18.14,97,0,6.93,RU,1608080015
68,Cabo San Lucas,22.89,-109.91,71.92,64,5,9.17,MX,1608080015
69,Kelo,9.31,15.81,70.0,23,0,4.97,TD,1608080015
70,Province of Mantua,45.17,10.78,42.01,97,100,1.99,IT,1608080015
71,Kapaa,22.08,-159.32,79.09,78,40,11.41,US,1608079869
72,New Norfolk,-42.78,147.06,55.65,55,100,1.99,AU,1608080015
73,Airai,-8.93,125.41,70.68,90,47,2.35,TL,1608079867
74,Lufilufi,-13.87,-171.6,78.39,94,90,6.93,WS,1608080016
75,East London,-33.02,27.91,67.12,75,27,11.77,ZA,1608080016
76,Itarema,-2.92,-39.92,79.25,80,61,11.88,BR,1608080016
77,Ponta do Sol,32.67,-17.1,59.59,67,20,5.82,PT,1608080016
78,Talnakh,69.49,88.4,-4.0,76,75,24.61,RU,1608080017
79,Busselton,-33.65,115.33,66.25,65,0,1.99,AU,1608080017
80,Kenai,60.55,-151.26,26.71,86,90,2.24,US,1608080017
81,Iseyin,7.97,3.6,76.17,82,35,3.94,NG,1608080017
82,Chui,-33.7,-53.46,64.13,81,26,11.99,UY,1608080017
83,Cidreira,-30.18,-50.21,71.67,93,10,9.84,BR,1608080017
84,Pangody,65.85,74.49,-6.92,89,100,15.52,RU,1608080018
85,Upernavik,72.79,-56.15,13.39,78,0,6.89,GL,1608080018
86,Bluff,-46.6,168.33,63.0,81,100,7.0,NZ,1608080018
87,Zeya,53.75,127.27,-10.84,79,0,1.81,RU,1608080018
88,Tazovsky,67.47,78.7,-6.07,87,100,18.3,RU,1608080018
89,Ayan,56.45,138.17,-5.67,90,100,22.03,RU,1608080018
90,Zyryanka,65.75,150.85,-22.47,86,100,11.36,RU,1608080019
91,Ambilobe,-13.2,49.05,73.51,89,11,2.53,MG,1608080019
92,Sitka,57.05,-135.33,46.4,52,75,13.87,US,1608079923
93,Leningradskiy,69.38,178.42,16.03,95,100,21.16,RU,1608080001
94,Deputatsky,69.3,139.9,-30.64,87,94,1.79,RU,1608080019
95,Bangassou,4.74,22.82,70.59,58,49,1.28,CF,1608080019
96,Lebu,-37.62,-73.65,52.77,76,0,22.53,CL,1608080019
97,Aklavik,68.22,-135.01,-9.4,76,90,12.75,CA,1608080019
98,Hithadhoo,-0.6,73.08,81.32,72,10,11.36,MV,1608080020
99,Tateyama,34.98,139.87,46.99,56,20,16.11,JP,1608080020
100,Snezhnogorsk,69.19,33.25,24.8,79,75,6.71,RU,1608080020
101,Hailar,49.2,119.7,-11.15,88,37,7.83,CN,1608080020
102,Cherskiy,68.75,161.3,-17.72,88,100,8.99,RU,1608080020
103,Mehamn,71.04,27.85,34.52,87,90,17.72,NO,1608080020
104,Kropotkin,45.44,40.58,38.17,85,49,2.19,RU,1608080021
105,Yerbogachën,61.28,108.01,-6.56,91,100,4.83,RU,1608080021
106,Sheridan,44.83,-106.92,26.73,73,1,3.36,US,1608080021
107,Beringovskiy,63.05,179.32,13.6,96,99,9.75,RU,1608080021
108,San Policarpo,12.18,125.51,80.8,84,100,9.86,PH,1608080021
109,Hermanus,-34.42,19.23,53.01,93,0,9.48,ZA,1608080021
110,Yarmouth,41.71,-70.23,32.34,39,1,5.82,US,1608080022
111,Chanthaburi,12.83,102.17,79.05,75,96,5.77,TH,1608080022
112,Lagos,6.58,3.75,77.58,88,32,3.98,NG,1608079862
113,Isangel,-19.55,169.27,87.8,62,75,6.93,VU,1608080002
114,Camaná,-16.62,-72.71,68.41,79,84,6.38,PE,1608080022
115,Bambous Virieux,-20.34,57.76,77.0,94,40,14.99,MU,1608080022
116,Norman Wells,65.28,-126.83,-20.2,75,75,9.17,CA,1608080018
117,Bambanglipuro,-7.95,110.28,70.0,87,88,2.84,ID,1608080023
118,Ostrovnoy,68.05,39.51,19.42,95,100,17.52,RU,1608080023
119,Atar,20.52,-13.05,65.12,28,0,7.78,MR,1608080023
120,Aksarka,66.56,67.8,-6.86,91,92,13.22,RU,1608080023
121,Kahului,20.89,-156.47,76.64,61,40,25.28,US,1608080023
122,Cape Town,-33.93,18.42,62.64,67,0,16.11,ZA,1608079989
123,Nome,64.5,-165.41,19.4,92,90,14.99,US,1608079945
124,Merrill,45.18,-89.68,17.1,61,90,5.66,US,1608080024
125,Severo-Kuril'sk,50.68,156.12,32.59,89,94,22.41,RU,1608080024
126,Port Hedland,-20.32,118.57,86.0,66,75,11.41,AU,1608080024
127,Chokurdakh,70.63,147.92,-24.03,87,100,4.38,RU,1608079899
128,Río Gallegos,-51.62,-69.22,55.4,58,20,36.91,AR,1608079918
129,Longyearbyen,78.22,15.64,5.0,60,0,20.8,SJ,1608080006
130,Pundaguitan,6.37,126.17,82.0,74,100,7.11,PH,1608080025
131,Damara,4.96,18.7,75.2,88,37,2.24,CF,1608080025
132,Salalah,17.02,54.09,69.8,56,0,8.05,OM,1608080025
133,Sorata,-15.77,-68.63,49.91,79,93,5.55,BO,1608080025
134,Flinders,-34.58,150.86,77.07,88,66,5.99,AU,1608080025
135,Bengkulu,-3.8,102.27,77.76,85,100,4.25,ID,1608079793
136,Esperance,-33.87,121.9,62.6,55,75,10.29,AU,1608080025
137,Steinbach am Taunus,50.17,8.57,44.19,100,75,4.7,DE,1608080026
138,Half Moon Bay,37.46,-122.43,53.26,71,1,9.17,US,1608080026
139,Tuktoyaktuk,69.45,-133.04,-14.8,83,40,9.17,CA,1608079989
140,Avarua,-21.21,-159.78,84.2,79,100,11.41,CK,1608080026
141,Kirakira,-10.45,161.92,86.95,70,14,6.33,SB,1608080026
142,Hasaki,35.73,140.83,39.7,38,20,8.05,JP,1608080026
143,Dabakala,8.37,-4.43,77.85,72,21,4.5,CI,1608080027
144,Antofagasta,-23.65,-70.4,66.2,77,90,10.29,CL,1608080027
145,Faanui,-16.48,-151.75,80.69,77,100,16.91,PF,1608080027
146,Pau dos Ferros,-6.11,-38.21,79.18,70,99,8.48,BR,1608080027
147,Bredasdorp,-34.53,20.04,51.8,87,0,2.24,ZA,1608080027
148,Dikson,73.51,80.55,-15.88,89,92,2.86,RU,1608080027
149,Korla,41.76,86.15,17.19,89,41,1.72,CN,1608080028
150,Hong Kong,22.29,114.16,53.92,76,97,1.01,HK,1608079752
151,Vestmannaeyjar,63.44,-20.27,43.18,76,42,14.16,IS,1608080028
152,Nichinan,31.6,131.37,41.0,48,20,13.87,JP,1608080028
153,Lodja,-3.48,23.43,68.92,92,13,0.85,CD,1608080028
154,South Venice,27.05,-82.42,64.42,88,1,7.23,US,1608080028
155,Erzin,36.96,36.2,55.0,84,100,5.01,TR,1608080029
156,Ancud,-41.87,-73.82,47.01,71,75,4.7,CL,1608080029
157,Luanda,-8.84,13.23,75.2,83,20,5.82,AO,1608080029
158,Iqaluit,63.75,-68.51,19.2,79,90,11.41,CA,1608080029
159,Chaman,30.92,66.45,31.01,73,0,2.06,PK,1608080029
160,Huarmey,-10.07,-78.15,68.16,80,91,6.35,PE,1608080029
161,Rio Grande,-32.03,-52.1,72.0,80,0,1.01,BR,1608080030
162,Parabel',58.7,81.48,-12.78,86,100,5.99,RU,1608080030
163,Chapais,49.78,-74.85,-14.8,75,20,6.93,CA,1608080030
164,Charters Towers,-20.1,146.27,92.25,38,91,9.13,AU,1608079757
165,Ucluelet,48.93,-125.55,47.41,81,90,13.87,CA,1608079794
166,Marawi,8.0,124.29,79.0,79,100,4.0,PH,1608080031
167,Kupang,-10.17,123.58,80.6,94,75,3.36,ID,1608080031
168,Paita,-5.09,-81.11,67.32,86,9,11.07,PE,1608080031
169,Saint-Philippe,-21.36,55.77,67.95,88,65,3.36,RE,1608080031
170,Skogn,63.7,11.2,34.21,100,40,5.82,NO,1608080032
171,Departamento de Maldonado,-34.67,-54.92,60.91,63,0,10.29,UY,1608080032
172,Takoradze,4.88,-1.76,78.08,89,97,8.1,GH,1608080032
173,Klaksvík,62.23,-6.59,44.6,100,100,8.05,FO,1608080032
174,Pangnirtung,66.15,-65.71,8.58,72,100,3.4,CA,1608079869
175,Saint-François,46.42,3.91,44.6,100,90,2.24,FR,1608080032
176,Diplo,24.47,69.58,55.71,38,0,11.83,PK,1608080033
177,Esim,4.87,-2.24,77.94,89,57,7.7,GH,1608080033
178,Anori,-3.77,-61.64,72.28,98,100,2.15,BR,1608080033
179,Karasjok,69.47,25.51,28.4,86,92,3.36,NO,1608080033
180,Pfarrkirchen,48.43,12.94,34.7,97,100,3.13,DE,1608080033
181,Mar del Plata,-38.0,-57.56,57.4,54,0,6.93,AR,1608080034
182,San Ramon,37.78,-121.98,54.46,47,90,11.41,US,1608079877
183,Ahipara,-35.17,173.17,70.56,53,0,9.51,NZ,1608080034
184,Vao,-22.67,167.48,76.19,73,3,20.62,NC,1608080034
185,Lobito,-12.35,13.55,72.46,80,98,3.96,AO,1608080034
186,Khrebtovaya,56.7,104.25,8.08,95,100,9.91,RU,1608080034
187,Nikolskoye,59.7,30.79,30.07,100,90,6.71,RU,1608080035
188,Alta Floresta,-9.88,-56.09,72.77,88,100,1.34,BR,1608080035
189,Grindavik,63.84,-22.43,39.2,86,90,14.99,IS,1608080035
190,Aranos,-24.13,19.12,77.41,22,1,15.48,NA,1608080035
191,Sozimskiy,59.74,52.25,15.75,96,100,7.25,RU,1608080035
192,Charter Township of Clinton,42.59,-82.92,25.29,68,75,8.05,US,1608080036
193,Pires do Rio,-17.3,-48.28,71.31,59,100,3.85,BR,1608080036
194,Okhotsk,59.38,143.3,2.21,85,0,21.45,RU,1608080036
195,Mount Isa,-20.73,139.5,95.0,32,100,8.05,AU,1608079935
196,Varkaus,62.32,27.87,32.0,96,90,9.17,FI,1608080036
197,Saint-Augustin,51.23,-58.65,29.5,98,100,18.41,CA,1608080036
198,Ulaangom,49.98,92.07,-10.91,87,100,1.36,MN,1608080036
199,Kamaishi,39.27,141.88,24.8,92,75,10.29,JP,1608080037
200,Nizhniy Baskunchak,48.22,46.83,26.26,86,100,11.12,RU,1608080037
201,Lorengau,-2.02,147.27,86.09,68,81,5.35,PG,1608080037
202,Khovd,48.01,91.64,0.03,84,100,1.12,MN,1608080037
203,Tiksi,71.69,128.87,-25.91,86,35,5.01,RU,1608080003
204,Stokmarknes,68.56,14.91,28.92,82,60,4.14,NO,1608080037
205,Torbay,47.67,-52.73,31.59,89,75,40.26,CA,1608080037
206,Wuwei,37.93,102.64,14.07,85,0,0.85,CN,1608080038
207,Hirara,24.8,125.28,64.4,88,75,16.11,JP,1608080038
208,Qinzhou,21.95,108.62,45.73,61,100,15.41,CN,1608080038
209,Margate,51.38,1.39,48.99,86,73,4.0,GB,1608080038
210,Lubango,-14.92,13.49,58.95,58,27,4.38,AO,1608080038
211,Yumen,40.28,97.2,9.34,88,8,1.88,CN,1608080038
212,Grandview,38.89,-94.53,28.17,74,90,11.41,US,1608080038
213,Kruisfontein,-34.0,24.73,59.0,90,2,6.35,ZA,1608080039
214,Muromtsevo,56.37,75.24,7.68,95,100,4.9,RU,1608080039
215,San Ignacio,17.16,-89.07,77.52,88,20,4.56,BZ,1608080039
216,Kpandae,8.47,-0.01,82.2,63,3,5.44,GH,1608080039
217,Kuytun,54.34,101.5,13.26,94,100,10.51,RU,1608080039
218,Merauke,-8.47,140.33,85.03,73,35,11.3,ID,1608080040
219,Dingle,11.0,122.67,80.87,84,100,11.95,PH,1608080040
220,Kaitangata,-46.28,169.85,71.01,49,88,11.01,NZ,1608080040
221,Grinnell,41.74,-92.72,20.86,68,40,10.29,US,1608080040
222,Fort Nelson,58.81,-122.7,-2.2,77,90,3.36,CA,1608080040
223,Baruun-Urt,46.68,113.28,-7.96,88,0,13.44,MN,1608080040
224,Katsuura,35.13,140.3,46.98,24,20,6.93,JP,1608080041
225,Tautira,-17.73,-149.15,87.8,58,20,21.92,PF,1608080041
226,Codrington,-38.27,141.97,56.23,93,100,11.43,AU,1608080041
227,Baie-Comeau,49.22,-68.15,5.0,60,75,10.29,CA,1608079837
228,Bumba,2.18,22.47,75.78,67,48,1.9,CD,1608080042
229,Jalu,29.03,21.55,51.8,76,0,6.93,LY,1608080042
230,Buarcos,40.17,-8.88,57.72,82,75,12.75,PT,1608080042
231,Glenwood Springs,39.55,-107.32,19.2,58,1,2.55,US,1608080043
232,Tocopilla,-22.09,-70.2,64.06,63,0,1.01,CL,1608079870
233,Bloomington,44.84,-93.3,24.13,45,40,6.93,US,1608079860
234,Isiro,2.77,27.62,65.03,70,68,1.45,CD,1608080043
235,Calama,-22.47,-68.93,64.4,20,0,20.8,CL,1608080043
236,Ekhabi,53.51,142.97,17.26,94,100,26.6,RU,1608080043
237,Barrow,71.29,-156.79,-7.6,69,20,27.51,US,1608079778
238,Mayumba,-3.43,10.66,77.4,91,100,8.97,GA,1608080044
239,Bauchi,10.5,10.0,65.73,27,76,3.76,NG,1608080044
240,Tiznit Province,29.58,-9.5,56.79,75,0,0.83,MA,1608080044
241,Arraial do Cabo,-22.97,-42.03,77.0,78,20,11.41,BR,1608080011
242,Autun,46.95,4.3,46.04,100,90,2.24,FR,1608080044
243,Mabaruma,8.2,-59.78,73.54,95,84,2.01,GY,1608080044
244,Portland,45.52,-122.68,47.68,93,100,1.99,US,1608079778
245,Fayetteville,35.05,-78.88,42.4,56,90,11.41,US,1608080045
246,Ambon City,-3.7,128.18,77.38,88,40,10.29,ID,1608079926
247,Linda,39.13,-121.55,53.13,66,1,5.82,US,1608080045
248,Akhtanizovskaya,45.32,37.1,35.6,87,86,20.13,RU,1608080045
249,Assiniboia,49.63,-105.98,26.6,79,100,11.41,CA,1608080045
250,Lüderitz,-26.65,15.16,66.2,59,0,18.34,NA,1608080000
251,Alofi,-19.06,-169.92,80.6,83,90,20.8,NU,1608079830
252,San Juan,-31.54,-68.54,76.19,18,0,8.95,AR,1608079828
253,Pacific Grove,36.62,-121.92,53.08,76,1,4.7,US,1608079827
254,Ilulissat,69.22,-51.1,24.8,53,72,20.8,GL,1608080046
255,Santa Cruz de La Palma,28.68,-17.76,59.54,63,0,6.93,ES,1608079766
256,Tasiilaq,65.61,-37.64,28.4,54,100,4.7,GL,1608080047
257,Souillac,-20.52,57.52,77.0,94,40,14.99,MU,1608080047
258,Shakawe,-18.37,21.85,68.65,90,100,3.71,BW,1608080047
259,Kindu,-2.95,25.95,70.07,97,100,1.12,CD,1608080047
260,Kaeo,-35.1,173.78,74.55,41,0,5.91,NZ,1608080047
261,Mossamedes,-15.2,12.15,66.51,81,55,4.38,AO,1608080047
262,Thompson,55.74,-97.86,-16.6,75,75,4.7,CA,1608080048
263,Khatanga,71.97,102.5,-36.27,83,0,1.99,RU,1608080048
264,San Patricio,28.02,-97.52,58.53,72,1,9.17,US,1608080048
265,Cockburn Town,21.46,-71.14,77.67,70,0,15.19,TC,1608080020
266,Mandera,3.94,41.87,77.29,31,0,7.49,KE,1608080048
267,Kununurra,-15.77,128.73,89.6,59,40,10.29,AU,1608080049
268,Dzerzhinsk,56.24,43.46,21.11,85,75,4.47,RU,1608080049
269,Port Elizabeth,-33.92,25.57,64.4,82,0,12.75,ZA,1608080049
270,Dapaong,10.86,0.2,73.71,21,41,4.43,TG,1608080049
271,Hella,67.2,14.43,32.0,91,75,8.05,NO,1608080049
272,Chicama,-7.84,-79.15,66.2,88,75,8.05,PE,1608080049
273,Salamiyah,35.01,37.05,55.83,72,100,13.71,SY,1608080050
274,Tual,-5.67,132.75,83.03,78,100,18.57,ID,1608080050
275,Bilibino,68.05,166.44,-8.59,88,100,1.03,RU,1608080050
276,Dudinka,69.41,86.18,-4.0,76,75,24.61,RU,1608080050
277,Povenets,62.85,34.83,26.74,97,76,7.99,RU,1608080050
278,Concepción del Oro,24.63,-101.42,50.81,35,0,6.55,MX,1608080050
279,Alugan,12.22,125.48,80.51,85,100,9.31,PH,1608080050
280,Usinsk,65.99,57.53,9.68,96,100,14.47,RU,1608080010
281,Kapuskasing,49.42,-82.43,-12.1,83,83,3.36,CA,1608080051
282,Pedernales,18.04,-71.74,76.41,75,1,5.1,DO,1608080051
283,Vigrestad,58.57,5.7,44.8,87,75,8.05,NO,1608080051
284,Hamilton,39.18,-84.53,31.69,87,1,5.82,US,1608080051
285,Muyezerskiy,63.93,31.65,29.88,98,100,9.42,RU,1608080051
286,Balabac,7.99,117.06,83.93,77,45,16.89,PH,1608080052
287,Laas,46.62,10.7,36.19,61,75,3.56,IT,1608080052
288,Carutapera,-1.2,-46.02,77.63,84,100,4.23,BR,1608080052
289,Petrov Val,50.14,45.21,21.88,92,100,5.91,RU,1608080052
290,Ribeira Grande,38.52,-28.7,60.85,74,100,4.63,PT,1608080052
291,Talara,-4.58,-81.27,68.41,84,1,9.71,PE,1608080052
292,Biltine,14.53,20.92,67.84,24,68,10.49,TD,1608080052
293,Tilichiki,60.47,166.1,3.16,95,100,13.96,RU,1608080053
294,Borogontsy,62.67,131.17,-48.35,76,100,2.68,RU,1608080053
295,Jumla,29.27,82.18,31.98,69,0,6.73,NP,1608080053
296,Kholtoson,50.3,103.31,-1.82,84,4,4.88,RU,1608080053
297,Saint-Louis,16.33,-15.0,71.6,37,0,2.24,SN,1608080053
298,Camacha,33.08,-16.33,64.4,68,75,12.75,PT,1608080054
299,Acajutla,13.59,-89.83,80.6,51,0,3.06,SV,1608080054
300,Kumul,42.8,93.45,12.25,75,0,1.81,CN,1608079755
301,São Filipe,14.9,-24.5,73.74,72,73,9.62,CV,1608080054
302,Dongli,23.57,116.82,53.6,71,75,6.71,CN,1608080054
303,Sibu,2.3,111.82,78.31,88,40,3.36,MY,1608079827
304,Kwang Binh,17.48,106.6,69.15,91,100,18.16,VN,1608080054
305,Ko Samui,9.54,99.94,75.2,88,40,11.41,TH,1608080055
306,Ust'-Ordynskiy,52.8,104.75,5.0,84,0,1.25,RU,1608079876
307,Melioratorov,57.21,65.61,15.8,61,0,13.42,RU,1608080055
308,Vallenar,-28.57,-70.76,66.18,57,0,3.56,CL,1608080055
309,Ugoofaaru,5.67,73.0,82.02,67,0,9.57,MV,1608080055
310,Haines Junction,60.75,-137.51,6.8,84,100,2.15,CA,1608079941
311,Beloha,-25.17,45.05,73.65,72,100,4.59,MG,1608080056
312,Minervino Murge,41.08,16.08,42.64,93,0,4.7,IT,1608080056
313,Boca do Acre,-8.75,-67.4,74.75,86,39,2.73,BR,1608080056
314,Dubno,50.42,25.73,35.01,98,80,8.12,UA,1608080056
315,Nelson Bay,-32.72,152.15,82.42,74,40,12.75,AU,1608080056
316,Karpathos,35.51,27.21,60.8,77,2,26.4,GR,1608080056
317,Zaozyornoye,45.16,33.28,40.23,85,97,18.48,UA,1608080057
318,Port Hawkesbury,45.62,-61.35,22.62,73,90,25.28,CA,1608080057
319,Savigliano,44.64,7.66,38.79,93,97,3.36,IT,1608080057
320,Comodoro Rivadavia,-45.87,-67.5,68.0,35,0,13.87,AR,1608080057
321,Altamont,42.21,-121.74,34.79,80,90,3.36,US,1608080057
322,Ascension,30.22,-90.9,49.48,81,90,5.82,US,1608080057
323,Udachny,66.42,112.4,-18.4,75,90,8.95,RU,1608080057
324,Mount Gambier,-37.83,140.77,55.4,93,90,11.41,AU,1608080058
325,Havøysund,71.0,24.66,30.2,92,97,9.17,NO,1608080058
326,Middelkerke,51.16,2.84,41.11,93,0,6.93,BE,1608079880
327,Coromandel,-18.47,-47.2,69.85,63,100,2.95,BR,1608080058
328,Popondetta,-8.75,148.25,90.45,53,1,4.97,PG,1608080058
329,Kandrian,-6.22,149.55,85.87,68,100,4.72,PG,1608080058
330,Manokwari,-0.87,134.08,83.86,73,100,3.24,ID,1608080059
331,Paramonga,-10.67,-77.83,67.33,82,100,4.41,PE,1608080059
332,Hervey Bay,-25.3,152.85,86.38,65,90,6.93,AU,1608080059
333,Wajir,1.75,40.06,76.01,51,0,12.37,KE,1608080059
334,Asău,46.43,26.4,33.01,100,0,2.71,RO,1608080059
335,Coquimbo,-29.95,-71.34,55.4,93,20,9.17,CL,1608080059
336,Mgandu,-5.95,34.13,62.92,91,75,2.59,TZ,1608080059
337,Laguna,38.42,-121.42,54.84,58,90,2.13,US,1608080060
338,Porto Santo,33.07,-16.34,64.4,68,75,12.75,PT,1608080060
339,Lompoc,34.64,-120.46,52.11,62,1,18.34,US,1608079919
340,Linjiang,41.81,126.91,3.61,71,0,2.77,CN,1608080060
341,Farmington,36.73,-108.22,33.8,47,1,14.99,US,1608079898
342,Strezhevoy,60.73,77.59,-14.8,83,0,8.95,RU,1608080060
343,Bara,10.37,10.73,72.91,22,48,8.68,NG,1608080060
344,Tavda,58.04,65.27,14.14,92,84,7.18,RU,1608080061
345,Benjamin Constant,-4.38,-70.03,75.2,100,40,2.24,BR,1608080061
346,Cranbourne,-38.1,145.28,69.87,63,100,3.0,AU,1608080061
347,Antsohihy,-14.88,47.99,74.8,77,97,2.82,MG,1608080061
348,Kiryat Gat,31.61,34.76,61.32,51,43,3.0,IL,1608080061
349,Sibut,5.72,19.07,74.37,34,90,4.25,CF,1608080061
350,Leshukonskoye,64.9,45.76,10.83,96,93,4.56,RU,1608080061
351,Mīnāb,27.15,57.08,51.8,50,0,4.7,IR,1608080062
352,Koumac,-20.57,164.28,81.54,65,73,9.84,NC,1608080062
353,Owando,-0.48,15.9,73.35,85,41,2.98,CG,1608080062
354,Koutsouras,35.03,25.95,60.01,69,26,25.66,GR,1608080062
355,Dęblin,51.56,21.85,36.72,49,100,5.55,PL,1608080062
356,Samaná,19.21,-69.34,73.51,74,0,7.14,DO,1608080062
357,Katherine,-14.47,132.27,84.2,74,75,4.7,AU,1608080062
358,Yagodnoye,62.55,149.67,-19.35,84,100,5.17,RU,1608080063
359,Waingapu,-9.66,120.26,84.06,68,100,4.72,ID,1608080063
360,Broken Hill,-31.95,141.43,82.4,37,16,13.87,AU,1608080063
361,‘Āhuimanu,21.44,-157.84,81.21,65,75,9.17,US,1608080063
362,Serebryansk,49.69,83.29,5.0,77,75,3.78,KZ,1608080063
363,Birao,10.28,22.79,69.04,23,69,5.32,CF,1608080063
364,Kirkuk,35.47,44.39,54.86,74,100,17.11,IQ,1608080063
365,Aswān,24.09,32.91,54.93,50,0,8.23,EG,1608080063
366,Oranjestad,12.52,-70.03,80.6,83,40,11.41,AW,1608079948
367,Zabaykal'sk,49.63,117.32,-6.43,85,0,2.86,RU,1608080064
368,Tessalit,20.2,1.01,65.64,24,0,4.85,ML,1608080064
369,Luocheng,29.38,104.03,41.74,82,96,2.24,CN,1608080064
370,Banda Aceh,5.56,95.32,79.7,76,78,3.04,ID,1608079947
371,San Carlos,9.66,-68.58,73.81,88,99,3.89,VE,1608079790
372,Eilat,29.56,34.95,55.56,62,3,1.39,IL,1608080064
373,Santiago del Estero,-27.8,-64.26,78.55,58,52,10.07,AR,1608080065
374,Bétaré Oya,5.6,14.08,69.85,34,22,2.3,CM,1608080065
375,Nanortalik,60.14,-45.24,27.45,89,88,8.19,GL,1608080065
376,Filingué,14.35,3.32,76.15,19,1,7.43,NE,1608080065
377,Bathsheba,13.22,-59.52,77.0,83,20,6.93,BB,1608080065
378,Pahrump,36.21,-115.98,36.48,24,1,3.36,US,1608080065
379,Lata,40.16,-8.33,57.02,81,100,5.01,PT,1608079913
380,Hay River,60.82,-115.8,-16.6,75,100,4.7,CA,1608080066
381,Rawson,-43.3,-65.1,72.37,23,97,18.7,AR,1608079912
382,Russell,32.35,-85.2,48.51,70,90,6.93,US,1608080066
383,Dinard,48.63,-2.06,47.21,87,0,21.92,FR,1608080066
384,Khandyga,62.67,135.6,-45.31,77,100,0.74,RU,1608080066
385,Saint-Michel-des-Saints,46.68,-73.92,-6.0,86,46,8.25,CA,1608080066
386,São Raimundo Nonato,-9.02,-42.7,76.86,49,100,2.1,BR,1608080067
387,Kassala,15.45,36.4,68.11,69,2,6.33,SD,1608080067
388,Sunggal,3.58,98.62,73.4,100,40,2.24,ID,1608080067
389,Kuznechikha,57.22,42.33,15.57,97,93,2.53,RU,1608080067
390,Hambantota,6.12,81.12,71.6,100,20,3.36,LK,1608079995
391,Praia da Vitória,38.73,-27.07,57.54,93,40,8.5,PT,1608079908
392,Dubrovka,53.69,33.51,26.87,98,100,2.75,RU,1608080067
393,Luanda,-8.84,13.23,75.2,83,20,5.82,AO,1608079808
394,Ţahţā,26.77,31.5,52.83,50,0,8.05,EG,1608079929
395,Bayanday,53.07,105.51,10.27,94,100,4.09,RU,1608080068
396,Gizo Government Station,-8.1,156.84,85.5,72,100,9.95,SB,1608079908
397,Nechanice,50.24,15.63,37.13,86,90,3.36,CZ,1608080068
398,Puerto Baquerizo Moreno,-0.9,-89.6,71.28,85,88,8.48,EC,1608080068
399,Mil'kovo,54.72,158.62,20.08,94,100,9.15,RU,1608080068
400,Tymovskoye,50.85,142.66,5.61,92,100,11.92,RU,1608080069
401,Saint-Leu,-21.15,55.28,67.6,88,34,3.36,RE,1608080069
402,Flagstaff,35.2,-111.65,30.52,26,1,8.05,US,1608080069
403,Bouar,5.93,15.6,69.76,27,0,5.53,CF,1608080069
404,Bell Ville,-32.63,-62.69,66.0,54,0,1.01,AR,1608080069
405,Plettenberg Bay,-34.05,23.37,61.27,83,24,4.85,ZA,1608080069
406,Necochea,-38.55,-58.74,55.0,59,0,14.79,AR,1608080069
407,Srednekolymsk,67.45,153.68,-21.48,87,100,6.29,RU,1608080070
408,Cayenne,4.93,-52.33,78.8,94,75,2.24,GF,1608079774
409,Port Hardy,50.7,-127.42,43.5,100,90,4.7,CA,1608080070
410,Heze,35.24,115.44,29.64,75,37,3.11,CN,1608079820
411,Samarinda,-0.5,117.15,81.21,80,100,3.31,ID,1608079820
412,Saýat,38.78,63.88,28.94,91,0,7.58,TM,1608080070
413,Gigmoto,13.78,124.39,82.22,76,69,14.41,PH,1608080070
414,Gisborne,-38.65,178.0,75.0,63,0,3.0,NZ,1608080071
415,Farafangana,-22.82,47.83,71.69,81,94,3.74,MG,1608080071
416,Boca Raton,26.36,-80.08,74.82,83,40,2.39,US,1608080071
417,Leh,34.17,77.58,2.82,74,82,0.74,IN,1608080071
418,Crotone,39.09,17.12,46.0,78,21,4.54,IT,1608080072
419,Rock Sound,24.9,-76.2,76.8,77,2,5.91,BS,1608080072
420,Coalinga,36.14,-120.36,53.42,57,0,4.99,US,1608080072
421,Viedma,-40.81,-63.0,60.01,51,48,4.0,AR,1608079946
422,Caravelas,-17.71,-39.25,74.01,91,0,4.79,BR,1608080072
423,San Luis,-33.3,-66.34,67.33,25,0,13.27,AR,1608079898
424,Lesnoy,57.62,63.08,16.83,89,100,8.39,RU,1608080072
425,Kalmar,56.66,16.36,42.89,93,100,4.7,SE,1608080072
426,Sabang,5.89,95.32,80.44,75,93,4.54,ID,1608080073
427,Nyagan,62.14,65.39,9.23,96,98,4.18,RU,1608080073
428,Pisco,-13.7,-76.22,67.57,82,0,16.11,PE,1608079799
429,Aykhal,66.0,111.5,-18.4,75,90,8.95,RU,1608080073
430,Noumea,-22.28,166.46,84.2,58,40,19.46,NC,1608080073
431,Reconquista,-29.15,-59.65,74.03,66,12,9.24,AR,1608079812
432,Long Xuyen,10.38,105.42,77.0,100,20,2.24,VN,1608080073
433,Marinette,45.1,-87.63,21.69,79,90,3.36,US,1608080074
434,Daru,-9.08,143.21,84.63,78,29,9.13,PG,1608080074
435,Lindsay,36.2,-119.09,53.55,50,1,5.82,US,1608080011
436,Tres Arroyos,-38.37,-60.28,55.72,42,0,10.29,AR,1608080074
437,Hachinohe,40.5,141.5,24.8,79,75,13.87,JP,1608080074
438,Cadillac,44.25,-85.4,18.46,79,90,4.7,US,1608080074
439,Buala,-8.14,159.59,85.21,75,100,10.74,SB,1608080074
440,Sechura,-5.56,-80.82,71.22,71,29,12.53,PE,1608080075
441,Araucária,-25.59,-49.41,65.17,100,75,6.93,BR,1608079998
442,Hammerfest,70.66,23.68,30.2,92,65,9.17,NO,1608079917
443,Dubovka,49.06,44.83,23.0,85,90,8.95,RU,1608080075
444,Zhigansk,66.77,123.37,-40.49,80,40,4.88,RU,1608080016
445,Hobyo,5.35,48.53,76.35,74,0,17.74,SO,1608080075
446,Nizhnyaya Tavda,57.67,66.17,12.15,93,55,7.63,RU,1608080075
447,Vaitape,-16.52,-151.75,81.55,76,99,16.89,PF,1608080075
448,Pavlikeni,43.24,25.32,37.69,100,90,3.4,BG,1608080076
449,Brockville,44.58,-75.68,9.21,60,1,8.05,CA,1608079784
450,Limerick,52.66,-8.62,48.67,100,75,19.46,IE,1608080076
451,Carnarvon,-24.87,113.63,75.2,78,75,20.8,AU,1608079993
452,Iralaya,15.0,-83.23,77.5,86,0,9.15,HN,1608080076
453,Seoul,37.57,126.98,17.6,37,1,4.7,KR,1608079981
454,Anadyr,64.75,177.48,19.4,73,75,11.18,RU,1608080076
455,Auki,-8.77,160.7,86.52,68,100,7.27,SB,1608080077
456,Santa Maria,-29.68,-53.81,77.0,61,0,2.91,BR,1608080077
457,Nemuro,43.32,145.57,24.8,49,20,12.75,JP,1608080077
458,Celestún,20.87,-90.4,74.59,88,55,4.54,MX,1608080077
459,Laramie,41.31,-105.59,16.29,66,1,6.93,US,1608080077
460,Kansk,56.2,95.72,7.47,91,88,12.97,RU,1608080077
461,Goundam,16.41,-3.67,75.49,24,0,9.64,ML,1608080077
462,Vredendal,-31.67,18.5,60.39,68,0,3.42,ZA,1608080078
463,Khambhāliya,22.21,69.67,64.98,60,5,13.0,IN,1608080078
464,Andenes,69.31,16.12,34.99,80,55,9.17,NO,1608080078
465,Qaqortoq,60.72,-46.03,39.2,35,0,27.51,GL,1608079790
466,Petawawa,45.9,-77.33,3.13,65,1,3.36,CA,1608080078
467,Srikakulam,18.3,83.9,68.52,80,66,5.39,IN,1608080006
468,Christchurch,-43.53,172.63,70.95,60,8,12.75,NZ,1608080079
469,Muisne,0.6,-80.03,74.97,82,60,4.65,EC,1608080079
470,Gushikawa,26.35,127.87,59.95,77,90,12.75,JP,1608080079
471,Naze,28.37,129.48,58.12,67,75,10.29,JP,1608080079
472,Cururupu,-1.83,-44.87,75.88,88,100,2.53,BR,1608080079
473,Quryq,43.2,51.65,33.8,82,0,26.69,KZ,1608080079
474,Galyugayevskaya,43.7,44.93,19.4,100,98,2.24,RU,1608080079
475,Linhares,-19.39,-40.07,70.93,94,0,3.47,BR,1608079909
476,Viçosa,-20.75,-42.88,78.01,74,100,5.99,BR,1608079874
477,Poum,-20.23,164.02,80.06,71,6,8.79,NC,1608080080
478,Port Macquarie,-31.43,152.92,77.86,88,90,12.75,AU,1608080080
479,Batticaloa,7.71,81.69,77.11,78,81,4.79,LK,1608080080
480,Abnūb,27.27,31.15,50.0,61,0,5.82,EG,1608080080
481,Kiunga,-6.12,141.29,81.28,79,97,1.66,PG,1608079917
482,Sydney,-33.87,151.21,78.21,74,75,17.22,AU,1608080054
483,Horsham,51.06,-0.33,47.88,87,40,6.93,GB,1608079903
484,Vila Velha,-20.33,-40.29,77.0,83,20,8.05,BR,1608080081
485,Gamba,-2.65,10.0,77.13,90,100,8.01,GA,1608080081
486,Mirpur Sakro,24.55,67.63,53.6,58,0,10.29,PK,1608080081
487,Vanimo,-2.67,141.3,79.34,81,100,2.42,PG,1608080081
488,Yangi Marg`ilon,40.43,71.72,30.2,86,75,2.24,UZ,1608080082
489,Dicabisagan,17.08,122.42,77.43,84,100,7.2,PH,1608080082
490,Namie,37.48,141.0,36.0,66,71,2.19,JP,1608080082
491,Mathbaria,22.29,89.96,64.69,59,0,5.84,BD,1608080082
492,Sicheviţa,44.73,21.85,39.0,85,75,6.58,RO,1608080082
493,Aginskoye,51.1,114.53,-2.94,84,0,2.75,RU,1608080082
494,Sola,-13.88,167.55,81.81,77,54,9.01,VU,1608080082
495,Nikolayevka,53.13,47.2,19.69,96,100,6.78,RU,1608080083
496,Puerto Ayacucho,5.66,-67.62,76.14,88,97,2.95,VE,1608080083
497,Roblin,51.23,-101.36,5.31,95,100,6.17,CA,1608080083
498,Novy Urengoy,66.08,76.63,-6.38,88,100,16.49,RU,1608080083
499,Flin Flon,54.77,-101.86,-2.2,84,90,5.82,CA,1608080083
500,Macaúbas,-13.02,-42.7,69.8,69,30,4.07,BR,1608080083
501,Iquitos,-3.75,-73.25,77.0,94,40,2.24,PE,1608079985
502,Angoche,-16.23,39.91,78.98,77,100,8.46,MZ,1608080084
503,College,64.86,-147.8,8.6,71,90,4.7,US,1608079827
504,Olafsvik,64.89,-23.71,38.08,84,100,31.27,IS,1608079935
505,Khasan,42.43,130.64,10.4,76,0,26.75,RU,1608080084
506,Meadow Lake,34.8,-106.54,32.88,47,20,11.41,US,1608080084
507,Xining,36.62,101.77,9.97,84,52,1.95,CN,1608080085
508,Tyrma,50.08,132.17,-13.09,82,26,4.34,RU,1608080085
509,Normandin,48.83,-72.53,-7.6,69,23,13.87,CA,1608080085
510,Kingaroy,-26.53,151.83,78.8,65,75,5.82,AU,1608080085
511,Guerrero Negro,27.98,-114.06,62.29,39,0,12.46,MX,1608080085
512,Troitsko-Pechorsk,62.71,56.2,15.33,96,100,6.76,RU,1608080086
513,Uttarkāshi,30.73,78.45,42.73,43,0,6.49,IN,1608080086
514,São Gabriel da Cachoeira,-0.13,-67.09,73.69,96,92,2.71,BR,1608079910
515,Bonthe,7.53,-12.51,79.83,83,95,5.19,SL,1608080086
516,Sarakhs,36.54,61.16,23.0,92,0,2.24,IR,1608080086
517,Sorong,-0.88,131.25,84.47,73,99,9.44,ID,1608080086
518,Campbellsville,37.34,-85.34,36.81,69,90,8.05,US,1608079951
519,Itoman,26.12,127.67,60.42,67,75,18.34,JP,1608080087
520,Angoram,-4.06,144.07,86.45,78,99,1.68,PG,1608080087
521,Palmer,42.16,-72.33,25.84,30,20,5.82,US,1608080007
522,Dibulla,11.27,-73.31,76.62,82,74,7.27,CO,1608080087
523,Opunake,-39.46,173.86,62.26,71,36,15.86,NZ,1608080087
524,Ketchikan,55.34,-131.65,42.8,87,90,14.99,US,1608080087
525,Matara,5.95,80.54,74.19,91,84,6.13,LK,1608080088
526,Basse-Pointe,14.87,-61.12,73.81,100,0,3.36,MQ,1608080088
527,Sur,22.57,59.53,69.15,45,15,11.21,OM,1608080088
528,Barra,-11.09,-43.14,78.28,55,83,4.59,BR,1608080088
529,Padang,-0.95,100.35,80.69,72,100,2.48,ID,1608080015
530,Rāja Sānsi,31.72,74.8,42.8,100,90,4.7,IN,1608080088
531,Wajima,37.4,136.9,30.2,92,90,8.05,JP,1608080089
532,Kedrovyy,56.17,91.82,10.4,78,40,15.66,RU,1608080089
533,Taoudenni,22.68,-3.98,66.24,26,0,7.94,ML,1608080089
534,Melilla,35.29,-2.94,51.64,76,0,2.24,ES,1608080089
535,Grants,35.15,-107.85,28.4,50,1,18.34,US,1608080089
536,Rancho Palos Verdes,33.74,-118.39,60.48,68,0,11.1,US,1608080089
537,Mtambile,-5.38,39.7,78.26,84,7,9.93,TZ,1608080089
538,Waycross,31.21,-82.35,51.06,62,90,9.17,US,1608080090
539,Dzaoudzi,-12.79,45.27,80.6,83,75,5.82,YT,1608080090
540,Santa Vitória do Palmar,-33.52,-53.37,65.39,81,64,13.42,BR,1608080090
541,Yarim,14.3,44.38,45.21,53,0,1.97,YE,1608080090
542,Saint Anthony,45.02,-93.22,23.76,49,90,4.7,US,1608079820
543,Forsytheganj,52.63,29.73,30.83,98,100,4.83,BY,1608080090
544,Faya,18.39,42.45,50.0,70,0,2.19,SA,1608080090
545,Antibes,43.56,7.13,49.35,87,75,10.29,FR,1608079872
546,Beitbridge,-22.22,30.0,72.18,87,100,15.26,ZW,1608080091
547,Quatre Cocos,-20.21,57.76,77.0,94,40,14.99,MU,1608080091
